[{"id":3396,"name":"Abu Dhabi Emirate","country_id":231,"country_code":"AE","country_name":"United Arab Emirates","state_code":"AZ","type":null,"latitude":"24.45388400","longitude":"54.37734380","name_ar":"Abu Dhabi Emirate"},{"id":3395,"name":"Ajman Emirate","country_id":231,"country_code":"AE","country_name":"United Arab Emirates","state_code":"AJ","type":null,"latitude":"25.40521650","longitude":"55.51364330","name_ar":"Ajman Emirate"},{"id":3391,"name":"Dubai","country_id":231,"country_code":"AE","country_name":"United Arab Emirates","state_code":"DU","type":null,"latitude":"25.20484930","longitude":"55.27078280","name_ar":"Dubai"},{"id":3393,"name":"Fujairah","country_id":231,"country_code":"AE","country_name":"United Arab Emirates","state_code":"FU","type":null,"latitude":"25.12880990","longitude":"56.32648490","name_ar":"Fujairah"},{"id":3394,"name":"Ras al-Khaimah","country_id":231,"country_code":"AE","country_name":"United Arab Emirates","state_code":"RK","type":null,"latitude":"25.67413430","longitude":"55.98041730","name_ar":"Ras al-Khaimah"},{"id":3390,"name":"Sharjah Emirate","country_id":231,"country_code":"AE","country_name":"United Arab Emirates","state_code":"SH","type":null,"latitude":"25.07539740","longitude":"55.75784030","name_ar":"Sharjah Emirate"},{"id":3392,"name":"Umm al-Quwain","country_id":231,"country_code":"AE","country_name":"United Arab Emirates","state_code":"UQ","type":null,"latitude":"25.54263240","longitude":"55.54753480","name_ar":"Umm al-Quwain"}]