[{"id":603,"name":"Berat County","country_id":3,"country_code":"AL","country_name":"Albania","state_code":"01","type":null,"latitude":"40.69530120","longitude":"20.04496620","name_ar":"Berat County"},{"id":629,"name":"Berat District","country_id":3,"country_code":"AL","country_name":"Albania","state_code":"BR","type":null,"latitude":"40.70863770","longitude":"19.94373140","name_ar":"Berat District"},{"id":607,"name":"Bulqiz\u00eb District","country_id":3,"country_code":"AL","country_name":"Albania","state_code":"BU","type":null,"latitude":"41.49425870","longitude":"20.21471570","name_ar":"Bulqiz\u00eb District"},{"id":618,"name":"Delvin\u00eb District","country_id":3,"country_code":"AL","country_name":"Albania","state_code":"DL","type":null,"latitude":"39.94813640","longitude":"20.09558910","name_ar":"Delvin\u00eb District"},{"id":608,"name":"Devoll District","country_id":3,"country_code":"AL","country_name":"Albania","state_code":"DV","type":null,"latitude":"40.64473470","longitude":"20.95066360","name_ar":"Devoll District"},{"id":610,"name":"Dib\u00ebr County","country_id":3,"country_code":"AL","country_name":"Albania","state_code":"09","type":null,"latitude":"41.58881630","longitude":"20.23556470","name_ar":"Dib\u00ebr County"},{"id":605,"name":"Dib\u00ebr District","country_id":3,"country_code":"AL","country_name":"Albania","state_code":"DI","type":null,"latitude":"41.58881630","longitude":"20.23556470","name_ar":"Dib\u00ebr District"},{"id":632,"name":"Durr\u00ebs County","country_id":3,"country_code":"AL","country_name":"Albania","state_code":"02","type":null,"latitude":"41.50809720","longitude":"19.61631850","name_ar":"Durr\u00ebs County"},{"id":639,"name":"Durr\u00ebs District","country_id":3,"country_code":"AL","country_name":"Albania","state_code":"DR","type":null,"latitude":"41.37065170","longitude":"19.52110630","name_ar":"Durr\u00ebs District"},{"id":598,"name":"Elbasan County","country_id":3,"country_code":"AL","country_name":"Albania","state_code":"03","type":null,"latitude":"41.12666720","longitude":"20.23556470","name_ar":"Elbasan County"},{"id":631,"name":"Fier County","country_id":3,"country_code":"AL","country_name":"Albania","state_code":"04","type":null,"latitude":"40.91913920","longitude":"19.66393090","name_ar":"Fier County"},{"id":627,"name":"Fier District","country_id":3,"country_code":"AL","country_name":"Albania","state_code":"FR","type":null,"latitude":"40.72750400","longitude":"19.56275960","name_ar":"Fier District"},{"id":604,"name":"Gjirokast\u00ebr County","country_id":3,"country_code":"AL","country_name":"Albania","state_code":"05","type":null,"latitude":"40.06728740","longitude":"20.10452290","name_ar":"Gjirokast\u00ebr County"},{"id":621,"name":"Gjirokast\u00ebr District","country_id":3,"country_code":"AL","country_name":"Albania","state_code":"GJ","type":null,"latitude":"40.06728740","longitude":"20.10452290","name_ar":"Gjirokast\u00ebr District"},{"id":617,"name":"Gramsh District","country_id":3,"country_code":"AL","country_name":"Albania","state_code":"GR","type":null,"latitude":"40.86698730","longitude":"20.18493230","name_ar":"Gramsh District"},{"id":600,"name":"Has District","country_id":3,"country_code":"AL","country_name":"Albania","state_code":"HA","type":null,"latitude":"42.79013360","longitude":"-83.61220120","name_ar":"Has District"},{"id":594,"name":"Kavaj\u00eb District","country_id":3,"country_code":"AL","country_name":"Albania","state_code":"KA","type":null,"latitude":"41.18445290","longitude":"19.56275960","name_ar":"Kavaj\u00eb District"},{"id":628,"name":"Kolonj\u00eb District","country_id":3,"country_code":"AL","country_name":"Albania","state_code":"ER","type":null,"latitude":"40.33732620","longitude":"20.67946760","name_ar":"Kolonj\u00eb District"},{"id":630,"name":"Kor\u00e7\u00eb County","country_id":3,"country_code":"AL","country_name":"Albania","state_code":"06","type":null,"latitude":"40.59056700","longitude":"20.61689210","name_ar":"Kor\u00e7\u00eb County"},{"id":597,"name":"Kor\u00e7\u00eb District","country_id":3,"country_code":"AL","country_name":"Albania","state_code":"KO","type":null,"latitude":"40.59056700","longitude":"20.61689210","name_ar":"Kor\u00e7\u00eb District"},{"id":614,"name":"Kruj\u00eb District","country_id":3,"country_code":"AL","country_name":"Albania","state_code":"KR","type":null,"latitude":"41.50947650","longitude":"19.77107320","name_ar":"Kruj\u00eb District"},{"id":612,"name":"Ku\u00e7ov\u00eb District","country_id":3,"country_code":"AL","country_name":"Albania","state_code":"KC","type":null,"latitude":"40.78370630","longitude":"19.87823480","name_ar":"Ku\u00e7ov\u00eb District"},{"id":601,"name":"Kuk\u00ebs County","country_id":3,"country_code":"AL","country_name":"Albania","state_code":"07","type":null,"latitude":"42.08074640","longitude":"20.41429230","name_ar":"Kuk\u00ebs County"},{"id":623,"name":"Kuk\u00ebs District","country_id":3,"country_code":"AL","country_name":"Albania","state_code":"KU","type":null,"latitude":"42.08074640","longitude":"20.41429230","name_ar":"Kuk\u00ebs District"},{"id":622,"name":"Kurbin District","country_id":3,"country_code":"AL","country_name":"Albania","state_code":"KB","type":null,"latitude":"41.64126440","longitude":"19.70559500","name_ar":"Kurbin District"},{"id":609,"name":"Lezh\u00eb County","country_id":3,"country_code":"AL","country_name":"Albania","state_code":"08","type":null,"latitude":"41.78137590","longitude":"19.80679160","name_ar":"Lezh\u00eb County"},{"id":595,"name":"Lezh\u00eb District","country_id":3,"country_code":"AL","country_name":"Albania","state_code":"LE","type":null,"latitude":"41.78607300","longitude":"19.64607580","name_ar":"Lezh\u00eb District"},{"id":596,"name":"Librazhd District","country_id":3,"country_code":"AL","country_name":"Albania","state_code":"LB","type":null,"latitude":"41.18292320","longitude":"20.31747690","name_ar":"Librazhd District"},{"id":599,"name":"Lushnj\u00eb District","country_id":3,"country_code":"AL","country_name":"Albania","state_code":"LU","type":null,"latitude":"40.94198300","longitude":"19.69964280","name_ar":"Lushnj\u00eb District"},{"id":602,"name":"Mal\u00ebsi e Madhe District","country_id":3,"country_code":"AL","country_name":"Albania","state_code":"MM","type":null,"latitude":"42.42451730","longitude":"19.61631850","name_ar":"Mal\u00ebsi e Madhe District"},{"id":637,"name":"Mallakast\u00ebr District","country_id":3,"country_code":"AL","country_name":"Albania","state_code":"MK","type":null,"latitude":"40.52733760","longitude":"19.78297910","name_ar":"Mallakast\u00ebr District"},{"id":635,"name":"Mat District","country_id":3,"country_code":"AL","country_name":"Albania","state_code":"MT","type":null,"latitude":"41.59376750","longitude":"19.99732440","name_ar":"Mat District"},{"id":638,"name":"Mirdit\u00eb District","country_id":3,"country_code":"AL","country_name":"Albania","state_code":"MR","type":null,"latitude":"41.76428600","longitude":"19.90205090","name_ar":"Mirdit\u00eb District"},{"id":619,"name":"Peqin District","country_id":3,"country_code":"AL","country_name":"Albania","state_code":"PQ","type":null,"latitude":"41.04709020","longitude":"19.75023840","name_ar":"Peqin District"},{"id":625,"name":"P\u00ebrmet District","country_id":3,"country_code":"AL","country_name":"Albania","state_code":"PR","type":null,"latitude":"40.23618370","longitude":"20.35173340","name_ar":"P\u00ebrmet District"},{"id":606,"name":"Pogradec District","country_id":3,"country_code":"AL","country_name":"Albania","state_code":"PG","type":null,"latitude":"40.90153140","longitude":"20.65562890","name_ar":"Pogradec District"},{"id":620,"name":"Puk\u00eb District","country_id":3,"country_code":"AL","country_name":"Albania","state_code":"PU","type":null,"latitude":"42.04697720","longitude":"19.89609680","name_ar":"Puk\u00eb District"},{"id":624,"name":"Sarand\u00eb District","country_id":3,"country_code":"AL","country_name":"Albania","state_code":"SR","type":null,"latitude":"39.85921190","longitude":"20.02710010","name_ar":"Sarand\u00eb District"},{"id":611,"name":"Shkod\u00ebr County","country_id":3,"country_code":"AL","country_name":"Albania","state_code":"10","type":null,"latitude":"42.15037100","longitude":"19.66393090","name_ar":"Shkod\u00ebr County"},{"id":626,"name":"Shkod\u00ebr District","country_id":3,"country_code":"AL","country_name":"Albania","state_code":"SH","type":null,"latitude":"42.06929850","longitude":"19.50325590","name_ar":"Shkod\u00ebr District"},{"id":593,"name":"Skrapar District","country_id":3,"country_code":"AL","country_name":"Albania","state_code":"SK","type":null,"latitude":"40.53499460","longitude":"20.28322170","name_ar":"Skrapar District"},{"id":616,"name":"Tepelen\u00eb District","country_id":3,"country_code":"AL","country_name":"Albania","state_code":"TE","type":null,"latitude":"40.29666320","longitude":"20.01816730","name_ar":"Tepelen\u00eb District"},{"id":615,"name":"Tirana County","country_id":3,"country_code":"AL","country_name":"Albania","state_code":"11","type":null,"latitude":"41.24275980","longitude":"19.80679160","name_ar":"Tirana County"},{"id":633,"name":"Tirana District","country_id":3,"country_code":"AL","country_name":"Albania","state_code":"TR","type":null,"latitude":"41.32754590","longitude":"19.81869820","name_ar":"Tirana District"},{"id":636,"name":"Tropoj\u00eb District","country_id":3,"country_code":"AL","country_name":"Albania","state_code":"TP","type":null,"latitude":"42.39821510","longitude":"20.16259550","name_ar":"Tropoj\u00eb District"},{"id":634,"name":"Vlor\u00eb County","country_id":3,"country_code":"AL","country_name":"Albania","state_code":"12","type":null,"latitude":"40.15009600","longitude":"19.80679160","name_ar":"Vlor\u00eb County"},{"id":613,"name":"Vlor\u00eb District","country_id":3,"country_code":"AL","country_name":"Albania","state_code":"VL","type":null,"latitude":"40.46606680","longitude":"19.49135600","name_ar":"Vlor\u00eb District"}]