[{"id":2062,"name":"Burgenland","country_id":15,"country_code":"AT","country_name":"Austria","state_code":"1","type":null,"latitude":"47.15371650","longitude":"16.26887970","name_ar":"Burgenland"},{"id":2057,"name":"Carinthia","country_id":15,"country_code":"AT","country_name":"Austria","state_code":"2","type":null,"latitude":"46.72220300","longitude":"14.18058820","name_ar":"Carinthia"},{"id":2065,"name":"Lower Austria","country_id":15,"country_code":"AT","country_name":"Austria","state_code":"3","type":null,"latitude":"48.10807700","longitude":"15.80495580","name_ar":"Lower Austria"},{"id":2061,"name":"Salzburg","country_id":15,"country_code":"AT","country_name":"Austria","state_code":"5","type":null,"latitude":"47.80949000","longitude":"13.05501000","name_ar":"Salzburg"},{"id":2059,"name":"Styria","country_id":15,"country_code":"AT","country_name":"Austria","state_code":"6","type":null,"latitude":"47.35934420","longitude":"14.46998270","name_ar":"Styria"},{"id":2064,"name":"Tyrol","country_id":15,"country_code":"AT","country_name":"Austria","state_code":"7","type":null,"latitude":"47.25374140","longitude":"11.60148700","name_ar":"Tyrol"},{"id":2058,"name":"Upper Austria","country_id":15,"country_code":"AT","country_name":"Austria","state_code":"4","type":null,"latitude":"48.02585400","longitude":"13.97236650","name_ar":"Upper Austria"},{"id":2060,"name":"Vienna","country_id":15,"country_code":"AT","country_name":"Austria","state_code":"9","type":null,"latitude":"48.20817430","longitude":"16.37381890","name_ar":"Vienna"},{"id":2063,"name":"Vorarlberg","country_id":15,"country_code":"AT","country_name":"Austria","state_code":"8","type":null,"latitude":"47.24974270","longitude":"9.97973730","name_ar":"Vorarlberg"}]