[{"id":1381,"name":"Antwerp","country_id":22,"country_code":"BE","country_name":"Belgium","state_code":"VAN","type":null,"latitude":"51.21944750","longitude":"4.40246430","name_ar":"Antwerp"},{"id":1376,"name":"Brussels-Capital Region","country_id":22,"country_code":"BE","country_name":"Belgium","state_code":"BRU","type":null,"latitude":"50.85034630","longitude":"4.35172110","name_ar":"Brussels-Capital Region"},{"id":1377,"name":"East Flanders","country_id":22,"country_code":"BE","country_name":"Belgium","state_code":"VOV","type":null,"latitude":"51.03621010","longitude":"3.73731240","name_ar":"East Flanders"},{"id":1373,"name":"Flanders","country_id":22,"country_code":"BE","country_name":"Belgium","state_code":"VLG","type":null,"latitude":"51.01087060","longitude":"3.72646130","name_ar":"Flanders"},{"id":1374,"name":"Flemish Brabant","country_id":22,"country_code":"BE","country_name":"Belgium","state_code":"VBR","type":null,"latitude":"50.88154340","longitude":"4.56459700","name_ar":"Flemish Brabant"},{"id":1375,"name":"Hainaut","country_id":22,"country_code":"BE","country_name":"Belgium","state_code":"WHT","type":null,"latitude":"50.52570760","longitude":"4.06210170","name_ar":"Hainaut"},{"id":1384,"name":"Li\u00e8ge","country_id":22,"country_code":"BE","country_name":"Belgium","state_code":"WLG","type":null,"latitude":"50.63255740","longitude":"5.57966620","name_ar":"Li\u00e8ge"},{"id":1372,"name":"Limburg","country_id":22,"country_code":"BE","country_name":"Belgium","state_code":"VLI","type":null,"latitude":null,"longitude":null,"name_ar":"Limburg"},{"id":1379,"name":"Luxembourg","country_id":22,"country_code":"BE","country_name":"Belgium","state_code":"WLX","type":null,"latitude":"49.81527300","longitude":"6.12958300","name_ar":"Luxembourg"},{"id":1378,"name":"Namur","country_id":22,"country_code":"BE","country_name":"Belgium","state_code":"WNA","type":null,"latitude":"50.46738830","longitude":"4.87198540","name_ar":"Namur"},{"id":1380,"name":"Wallonia","country_id":22,"country_code":"BE","country_name":"Belgium","state_code":"WAL","type":null,"latitude":"50.41756370","longitude":"4.45100660","name_ar":"Wallonia"},{"id":1382,"name":"Walloon Brabant","country_id":22,"country_code":"BE","country_name":"Belgium","state_code":"WBR","type":null,"latitude":"50.63324100","longitude":"4.52431500","name_ar":"Walloon Brabant"},{"id":1383,"name":"West Flanders","country_id":22,"country_code":"BE","country_name":"Belgium","state_code":"VWV","type":null,"latitude":"51.04047470","longitude":"2.99942130","name_ar":"West Flanders"}]