[{"id":4699,"name":"Blagoevgrad Province","country_id":34,"country_code":"BG","country_name":"Bulgaria","state_code":"01","type":null,"latitude":"42.02086140","longitude":"23.09433560","name_ar":"Blagoevgrad Province"},{"id":4715,"name":"Burgas Province","country_id":34,"country_code":"BG","country_name":"Bulgaria","state_code":"02","type":null,"latitude":"42.50480000","longitude":"27.46260790","name_ar":"Burgas Province"},{"id":4718,"name":"Dobrich Province","country_id":34,"country_code":"BG","country_name":"Bulgaria","state_code":"08","type":null,"latitude":"43.57278600","longitude":"27.82728020","name_ar":"Dobrich Province"},{"id":4693,"name":"Gabrovo Province","country_id":34,"country_code":"BG","country_name":"Bulgaria","state_code":"07","type":null,"latitude":"42.86847000","longitude":"25.31688900","name_ar":"Gabrovo Province"},{"id":4704,"name":"Haskovo Province","country_id":34,"country_code":"BG","country_name":"Bulgaria","state_code":"26","type":null,"latitude":"41.93441780","longitude":"25.55546720","name_ar":"Haskovo Province"},{"id":4702,"name":"Kardzhali Province","country_id":34,"country_code":"BG","country_name":"Bulgaria","state_code":"09","type":null,"latitude":"41.63384160","longitude":"25.37766870","name_ar":"Kardzhali Province"},{"id":4703,"name":"Kyustendil Province","country_id":34,"country_code":"BG","country_name":"Bulgaria","state_code":"10","type":null,"latitude":"42.28687990","longitude":"22.69396350","name_ar":"Kyustendil Province"},{"id":4710,"name":"Lovech Province","country_id":34,"country_code":"BG","country_name":"Bulgaria","state_code":"11","type":null,"latitude":"43.13677980","longitude":"24.71393350","name_ar":"Lovech Province"},{"id":4696,"name":"Montana Province","country_id":34,"country_code":"BG","country_name":"Bulgaria","state_code":"12","type":null,"latitude":"43.40851480","longitude":"23.22575890","name_ar":"Montana Province"},{"id":4712,"name":"Pazardzhik Province","country_id":34,"country_code":"BG","country_name":"Bulgaria","state_code":"13","type":null,"latitude":"42.19275670","longitude":"24.33362260","name_ar":"Pazardzhik Province"},{"id":4695,"name":"Pernik Province","country_id":34,"country_code":"BG","country_name":"Bulgaria","state_code":"14","type":null,"latitude":"42.60519900","longitude":"23.03779160","name_ar":"Pernik Province"},{"id":4706,"name":"Pleven Province","country_id":34,"country_code":"BG","country_name":"Bulgaria","state_code":"15","type":null,"latitude":"43.41701690","longitude":"24.60667080","name_ar":"Pleven Province"},{"id":4701,"name":"Plovdiv Province","country_id":34,"country_code":"BG","country_name":"Bulgaria","state_code":"16","type":null,"latitude":"42.13540790","longitude":"24.74529040","name_ar":"Plovdiv Province"},{"id":4698,"name":"Razgrad Province","country_id":34,"country_code":"BG","country_name":"Bulgaria","state_code":"17","type":null,"latitude":"43.52717050","longitude":"26.52412280","name_ar":"Razgrad Province"},{"id":4713,"name":"Ruse Province","country_id":34,"country_code":"BG","country_name":"Bulgaria","state_code":"18","type":null,"latitude":"43.83559640","longitude":"25.96561440","name_ar":"Ruse Province"},{"id":4882,"name":"Shumen","country_id":34,"country_code":"BG","country_name":"Bulgaria","state_code":"27","type":null,"latitude":"43.27123980","longitude":"26.93612860","name_ar":"Shumen"},{"id":4708,"name":"Silistra Province","country_id":34,"country_code":"BG","country_name":"Bulgaria","state_code":"19","type":null,"latitude":"44.11471010","longitude":"27.26714540","name_ar":"Silistra Province"},{"id":4700,"name":"Sliven Province","country_id":34,"country_code":"BG","country_name":"Bulgaria","state_code":"20","type":null,"latitude":"42.68167020","longitude":"26.32285690","name_ar":"Sliven Province"},{"id":4694,"name":"Smolyan Province","country_id":34,"country_code":"BG","country_name":"Bulgaria","state_code":"21","type":null,"latitude":"41.57741480","longitude":"24.70108710","name_ar":"Smolyan Province"},{"id":4705,"name":"Sofia City Province","country_id":34,"country_code":"BG","country_name":"Bulgaria","state_code":"22","type":null,"latitude":"42.75701090","longitude":"23.45046830","name_ar":"Sofia City Province"},{"id":4719,"name":"Sofia Province","country_id":34,"country_code":"BG","country_name":"Bulgaria","state_code":"23","type":null,"latitude":"42.67344000","longitude":"23.83349370","name_ar":"Sofia Province"},{"id":4707,"name":"Stara Zagora Province","country_id":34,"country_code":"BG","country_name":"Bulgaria","state_code":"24","type":null,"latitude":"42.42577090","longitude":"25.63448550","name_ar":"Stara Zagora Province"},{"id":4714,"name":"Targovishte Province","country_id":34,"country_code":"BG","country_name":"Bulgaria","state_code":"25","type":null,"latitude":"43.24623490","longitude":"26.56912510","name_ar":"Targovishte Province"},{"id":4717,"name":"Varna Province","country_id":34,"country_code":"BG","country_name":"Bulgaria","state_code":"03","type":null,"latitude":"43.20464770","longitude":"27.91054880","name_ar":"Varna Province"},{"id":4709,"name":"Veliko Tarnovo Province","country_id":34,"country_code":"BG","country_name":"Bulgaria","state_code":"04","type":null,"latitude":"43.07565390","longitude":"25.61715000","name_ar":"Veliko Tarnovo Province"},{"id":4697,"name":"Vidin Province","country_id":34,"country_code":"BG","country_name":"Bulgaria","state_code":"05","type":null,"latitude":"43.99617390","longitude":"22.86795150","name_ar":"Vidin Province"},{"id":4711,"name":"Vratsa Province","country_id":34,"country_code":"BG","country_name":"Bulgaria","state_code":"06","type":null,"latitude":"43.21018060","longitude":"23.55292100","name_ar":"Vratsa Province"},{"id":4716,"name":"Yambol Province","country_id":34,"country_code":"BG","country_name":"Bulgaria","state_code":"28","type":null,"latitude":"42.48414940","longitude":"26.50352960","name_ar":"Yambol Province"}]