[{"id":2012,"name":"Acre","country_id":31,"country_code":"BR","country_name":"Brazil","state_code":"AC","type":null,"latitude":"-9.02379600","longitude":"-70.81199500","name_ar":"Acre"},{"id":2007,"name":"Alagoas","country_id":31,"country_code":"BR","country_name":"Brazil","state_code":"AL","type":null,"latitude":"-9.57130580","longitude":"-36.78195050","name_ar":"Alagoas"},{"id":1999,"name":"Amap\u00e1","country_id":31,"country_code":"BR","country_name":"Brazil","state_code":"AP","type":null,"latitude":"0.90199250","longitude":"-52.00295650","name_ar":"Amap\u00e1"},{"id":2004,"name":"Amazonas","country_id":31,"country_code":"BR","country_name":"Brazil","state_code":"AM","type":null,"latitude":"-3.07000000","longitude":"-61.66000000","name_ar":"Amazonas"},{"id":2002,"name":"Bahia","country_id":31,"country_code":"BR","country_name":"Brazil","state_code":"BA","type":null,"latitude":"-11.40987400","longitude":"-41.28085700","name_ar":"Bahia"},{"id":2016,"name":"Cear\u00e1","country_id":31,"country_code":"BR","country_name":"Brazil","state_code":"CE","type":null,"latitude":"-5.49839770","longitude":"-39.32062410","name_ar":"Cear\u00e1"},{"id":2017,"name":"Distrito Federal","country_id":31,"country_code":"BR","country_name":"Brazil","state_code":"DF","type":null,"latitude":"-15.79976540","longitude":"-47.86447150","name_ar":"Distrito Federal"},{"id":2018,"name":"Esp\u00edrito Santo","country_id":31,"country_code":"BR","country_name":"Brazil","state_code":"ES","type":null,"latitude":"-19.18342290","longitude":"-40.30886260","name_ar":"Esp\u00edrito Santo"},{"id":2000,"name":"Goi\u00e1s","country_id":31,"country_code":"BR","country_name":"Brazil","state_code":"GO","type":null,"latitude":"-15.82703690","longitude":"-49.83622370","name_ar":"Goi\u00e1s"},{"id":2015,"name":"Maranh\u00e3o","country_id":31,"country_code":"BR","country_name":"Brazil","state_code":"MA","type":null,"latitude":"-4.96094980","longitude":"-45.27441590","name_ar":"Maranh\u00e3o"},{"id":2011,"name":"Mato Grosso","country_id":31,"country_code":"BR","country_name":"Brazil","state_code":"MT","type":null,"latitude":"-12.68187120","longitude":"-56.92109900","name_ar":"Mato Grosso"},{"id":2010,"name":"Mato Grosso do Sul","country_id":31,"country_code":"BR","country_name":"Brazil","state_code":"MS","type":null,"latitude":"-20.77222950","longitude":"-54.78515310","name_ar":"Mato Grosso do Sul"},{"id":1998,"name":"Minas Gerais","country_id":31,"country_code":"BR","country_name":"Brazil","state_code":"MG","type":null,"latitude":"-18.51217800","longitude":"-44.55503080","name_ar":"Minas Gerais"},{"id":2009,"name":"Par\u00e1","country_id":31,"country_code":"BR","country_name":"Brazil","state_code":"PA","type":null,"latitude":"-1.99812710","longitude":"-54.93061520","name_ar":"Par\u00e1"},{"id":2005,"name":"Para\u00edba","country_id":31,"country_code":"BR","country_name":"Brazil","state_code":"PB","type":null,"latitude":"-7.23996090","longitude":"-36.78195050","name_ar":"Para\u00edba"},{"id":2022,"name":"Paran\u00e1","country_id":31,"country_code":"BR","country_name":"Brazil","state_code":"PR","type":null,"latitude":"-25.25208880","longitude":"-52.02154150","name_ar":"Paran\u00e1"},{"id":2006,"name":"Pernambuco","country_id":31,"country_code":"BR","country_name":"Brazil","state_code":"PE","type":null,"latitude":"-8.81371730","longitude":"-36.95410700","name_ar":"Pernambuco"},{"id":2008,"name":"Piau\u00ed","country_id":31,"country_code":"BR","country_name":"Brazil","state_code":"PI","type":null,"latitude":"-7.71834010","longitude":"-42.72892360","name_ar":"Piau\u00ed"},{"id":1997,"name":"Rio de Janeiro","country_id":31,"country_code":"BR","country_name":"Brazil","state_code":"RJ","type":null,"latitude":"-22.90684670","longitude":"-43.17289650","name_ar":"Rio de Janeiro"},{"id":2019,"name":"Rio Grande do Norte","country_id":31,"country_code":"BR","country_name":"Brazil","state_code":"RN","type":null,"latitude":"-5.40258030","longitude":"-36.95410700","name_ar":"Rio Grande do Norte"},{"id":2001,"name":"Rio Grande do Sul","country_id":31,"country_code":"BR","country_name":"Brazil","state_code":"RS","type":null,"latitude":"-30.03463160","longitude":"-51.21769860","name_ar":"Rio Grande do Sul"},{"id":2013,"name":"Rond\u00f4nia","country_id":31,"country_code":"BR","country_name":"Brazil","state_code":"RO","type":null,"latitude":"-11.50573410","longitude":"-63.58061100","name_ar":"Rond\u00f4nia"},{"id":4858,"name":"Roraima","country_id":31,"country_code":"BR","country_name":"Brazil","state_code":"RR","type":null,"latitude":"2.73759710","longitude":"-62.07509980","name_ar":"Roraima"},{"id":2014,"name":"Santa Catarina","country_id":31,"country_code":"BR","country_name":"Brazil","state_code":"SC","type":null,"latitude":"-27.33000000","longitude":"-49.44000000","name_ar":"Santa Catarina"},{"id":2021,"name":"S\u00e3o Paulo","country_id":31,"country_code":"BR","country_name":"Brazil","state_code":"SP","type":null,"latitude":"-23.55051990","longitude":"-46.63330940","name_ar":"S\u00e3o Paulo"},{"id":2003,"name":"Sergipe","country_id":31,"country_code":"BR","country_name":"Brazil","state_code":"SE","type":null,"latitude":"-10.57409340","longitude":"-37.38565810","name_ar":"Sergipe"},{"id":2020,"name":"Tocantins","country_id":31,"country_code":"BR","country_name":"Brazil","state_code":"TO","type":null,"latitude":"-10.17528000","longitude":"-48.29824740","name_ar":"Tocantins"}]