[{"id":2959,"name":"Brest Region","country_id":21,"country_code":"BY","country_name":"Belarus","state_code":"BR","type":null,"latitude":"52.52966410","longitude":"25.46064800","name_ar":"Brest Region"},{"id":2955,"name":"Gomel Region","country_id":21,"country_code":"BY","country_name":"Belarus","state_code":"HO","type":null,"latitude":"52.16487540","longitude":"29.13332510","name_ar":"Gomel Region"},{"id":2956,"name":"Grodno Region","country_id":21,"country_code":"BY","country_name":"Belarus","state_code":"HR","type":null,"latitude":"53.65999450","longitude":"25.34485710","name_ar":"Grodno Region"},{"id":2958,"name":"Minsk","country_id":21,"country_code":"BY","country_name":"Belarus","state_code":"HM","type":null,"latitude":"53.90060110","longitude":"27.55897200","name_ar":"Minsk"},{"id":2957,"name":"Minsk Region","country_id":21,"country_code":"BY","country_name":"Belarus","state_code":"MI","type":null,"latitude":"54.10678890","longitude":"27.41292450","name_ar":"Minsk Region"},{"id":2954,"name":"Mogilev Region","country_id":21,"country_code":"BY","country_name":"Belarus","state_code":"MA","type":null,"latitude":"53.51017910","longitude":"30.40064440","name_ar":"Mogilev Region"},{"id":2960,"name":"Vitebsk Region","country_id":21,"country_code":"BY","country_name":"Belarus","state_code":"VI","type":null,"latitude":"55.29598330","longitude":"28.75836270","name_ar":"Vitebsk Region"}]