[{"id":872,"name":"Alberta","country_id":39,"country_code":"CA","country_name":"Canada","state_code":"AB","type":"province","latitude":"53.93327060","longitude":"-116.57650350","name_ar":"Alberta"},{"id":875,"name":"British Columbia","country_id":39,"country_code":"CA","country_name":"Canada","state_code":"BC","type":"province","latitude":"53.72666830","longitude":"-127.64762050","name_ar":"British Columbia"},{"id":867,"name":"Manitoba","country_id":39,"country_code":"CA","country_name":"Canada","state_code":"MB","type":"province","latitude":"53.76086080","longitude":"-98.81387620","name_ar":"Manitoba"},{"id":868,"name":"New Brunswick","country_id":39,"country_code":"CA","country_name":"Canada","state_code":"NB","type":"province","latitude":"46.56531630","longitude":"-66.46191640","name_ar":"New Brunswick"},{"id":877,"name":"Newfoundland and Labrador","country_id":39,"country_code":"CA","country_name":"Canada","state_code":"NL","type":"province","latitude":"53.13550910","longitude":"-57.66043640","name_ar":"Newfoundland and Labrador"},{"id":878,"name":"Northwest Territories","country_id":39,"country_code":"CA","country_name":"Canada","state_code":"NT","type":"territory","latitude":"64.82554410","longitude":"-124.84573340","name_ar":"Northwest Territories"},{"id":874,"name":"Nova Scotia","country_id":39,"country_code":"CA","country_name":"Canada","state_code":"NS","type":"province","latitude":"44.68198660","longitude":"-63.74431100","name_ar":"Nova Scotia"},{"id":876,"name":"Nunavut","country_id":39,"country_code":"CA","country_name":"Canada","state_code":"NU","type":"territory","latitude":"70.29977110","longitude":"-83.10757700","name_ar":"Nunavut"},{"id":866,"name":"Ontario","country_id":39,"country_code":"CA","country_name":"Canada","state_code":"ON","type":"province","latitude":"51.25377500","longitude":"-85.32321400","name_ar":"Ontario"},{"id":871,"name":"Prince Edward Island","country_id":39,"country_code":"CA","country_name":"Canada","state_code":"PE","type":"province","latitude":"46.51071200","longitude":"-63.41681360","name_ar":"Prince Edward Island"},{"id":873,"name":"Quebec","country_id":39,"country_code":"CA","country_name":"Canada","state_code":"QC","type":"province","latitude":"52.93991590","longitude":"-73.54913610","name_ar":"Quebec"},{"id":870,"name":"Saskatchewan","country_id":39,"country_code":"CA","country_name":"Canada","state_code":"SK","type":"province","latitude":"52.93991590","longitude":"-106.45086390","name_ar":"Saskatchewan"},{"id":869,"name":"Yukon","country_id":39,"country_code":"CA","country_name":"Canada","state_code":"YT","type":"territory","latitude":"35.50672150","longitude":"-97.76254410","name_ar":"Yukon"}]