[{"id":1259,"name":"Bamingui-Bangoran Prefecture","country_id":42,"country_code":"CF","country_name":"Central African Republic","state_code":"BB","type":null,"latitude":"8.27334550","longitude":"20.71224650","name_ar":"Bamingui-Bangoran Prefecture"},{"id":1262,"name":"Bangui","country_id":42,"country_code":"CF","country_name":"Central African Republic","state_code":"BGF","type":null,"latitude":"4.39467350","longitude":"18.55818990","name_ar":"Bangui"},{"id":1264,"name":"Basse-Kotto Prefecture","country_id":42,"country_code":"CF","country_name":"Central African Republic","state_code":"BK","type":null,"latitude":"4.87193190","longitude":"21.28450250","name_ar":"Basse-Kotto Prefecture"},{"id":1258,"name":"Haut-Mbomou Prefecture","country_id":42,"country_code":"CF","country_name":"Central African Republic","state_code":"HM","type":null,"latitude":"6.25371340","longitude":"25.47335540","name_ar":"Haut-Mbomou Prefecture"},{"id":1268,"name":"Haute-Kotto Prefecture","country_id":42,"country_code":"CF","country_name":"Central African Republic","state_code":"HK","type":null,"latitude":"7.79643790","longitude":"23.38235450","name_ar":"Haute-Kotto Prefecture"},{"id":1263,"name":"K\u00e9mo Prefecture","country_id":42,"country_code":"CF","country_name":"Central African Republic","state_code":"KG","type":null,"latitude":"5.88677940","longitude":"19.37832060","name_ar":"K\u00e9mo Prefecture"},{"id":1256,"name":"Lobaye Prefecture","country_id":42,"country_code":"CF","country_name":"Central African Republic","state_code":"LB","type":null,"latitude":"4.35259810","longitude":"17.47951730","name_ar":"Lobaye Prefecture"},{"id":1257,"name":"Mamb\u00e9r\u00e9-Kad\u00e9\u00ef","country_id":42,"country_code":"CF","country_name":"Central African Republic","state_code":"HS","type":null,"latitude":"4.70556530","longitude":"15.96998780","name_ar":"Mamb\u00e9r\u00e9-Kad\u00e9\u00ef"},{"id":1266,"name":"Mbomou Prefecture","country_id":42,"country_code":"CF","country_name":"Central African Republic","state_code":"MB","type":null,"latitude":"5.55683700","longitude":"23.76328280","name_ar":"Mbomou Prefecture"},{"id":1253,"name":"Nana-Gr\u00e9bizi Economic Prefecture","country_id":42,"country_code":"CF","country_name":"Central African Republic","state_code":"KB","type":null,"latitude":"7.18486070","longitude":"19.37832060","name_ar":"Nana-Gr\u00e9bizi Economic Prefecture"},{"id":1260,"name":"Nana-Mamb\u00e9r\u00e9 Prefecture","country_id":42,"country_code":"CF","country_name":"Central African Republic","state_code":"NM","type":null,"latitude":"5.69321350","longitude":"15.21948080","name_ar":"Nana-Mamb\u00e9r\u00e9 Prefecture"},{"id":1255,"name":"Ombella-M'Poko Prefecture","country_id":42,"country_code":"CF","country_name":"Central African Republic","state_code":"MP","type":null,"latitude":"5.11888250","longitude":"18.42760470","name_ar":"Ombella-M'Poko Prefecture"},{"id":1265,"name":"Ouaka Prefecture","country_id":42,"country_code":"CF","country_name":"Central African Republic","state_code":"UK","type":null,"latitude":"6.31682160","longitude":"20.71224650","name_ar":"Ouaka Prefecture"},{"id":1254,"name":"Ouham Prefecture","country_id":42,"country_code":"CF","country_name":"Central African Republic","state_code":"AC","type":null,"latitude":"7.09091100","longitude":"17.66888700","name_ar":"Ouham Prefecture"},{"id":1267,"name":"Ouham-Pend\u00e9 Prefecture","country_id":42,"country_code":"CF","country_name":"Central African Republic","state_code":"OP","type":null,"latitude":"6.48509840","longitude":"16.15809370","name_ar":"Ouham-Pend\u00e9 Prefecture"},{"id":1252,"name":"Sangha-Mba\u00e9r\u00e9","country_id":42,"country_code":"CF","country_name":"Central African Republic","state_code":"SE","type":null,"latitude":"3.43686070","longitude":"16.34637910","name_ar":"Sangha-Mba\u00e9r\u00e9"},{"id":1261,"name":"Vakaga Prefecture","country_id":42,"country_code":"CF","country_name":"Central African Republic","state_code":"VK","type":null,"latitude":"9.51132960","longitude":"22.23840170","name_ar":"Vakaga Prefecture"}]