[{"id":2828,"name":"Ais\u00e9n del General Carlos Iba\u00f1ez del Campo","country_id":44,"country_code":"CL","country_name":"Chile","state_code":"AI","type":null,"latitude":"-46.37834500","longitude":"-72.30076230","name_ar":"Ais\u00e9n del General Carlos Iba\u00f1ez del Campo"},{"id":2832,"name":"Antofagasta","country_id":44,"country_code":"CL","country_name":"Chile","state_code":"AN","type":null,"latitude":"-23.83691040","longitude":"-69.28775350","name_ar":"Antofagasta"},{"id":2829,"name":"Arica y Parinacota","country_id":44,"country_code":"CL","country_name":"Chile","state_code":"AP","type":null,"latitude":"-18.59404850","longitude":"-69.47845410","name_ar":"Arica y Parinacota"},{"id":2823,"name":"Atacama","country_id":44,"country_code":"CL","country_name":"Chile","state_code":"AT","type":null,"latitude":"-27.56605580","longitude":"-70.05031400","name_ar":"Atacama"},{"id":2827,"name":"Biob\u00edo","country_id":44,"country_code":"CL","country_name":"Chile","state_code":"BI","type":null,"latitude":"-37.44644280","longitude":"-72.14161320","name_ar":"Biob\u00edo"},{"id":2825,"name":"Coquimbo","country_id":44,"country_code":"CL","country_name":"Chile","state_code":"CO","type":null,"latitude":"-30.54018100","longitude":"-70.81199530","name_ar":"Coquimbo"},{"id":2826,"name":"La Araucan\u00eda","country_id":44,"country_code":"CL","country_name":"Chile","state_code":"AR","type":null,"latitude":"-38.94892100","longitude":"-72.33111300","name_ar":"La Araucan\u00eda"},{"id":2838,"name":"Libertador General Bernardo O'Higgins","country_id":44,"country_code":"CL","country_name":"Chile","state_code":"LI","type":null,"latitude":"-34.57553740","longitude":"-71.00223110","name_ar":"Libertador General Bernardo O'Higgins"},{"id":2835,"name":"Los Lagos","country_id":44,"country_code":"CL","country_name":"Chile","state_code":"LL","type":null,"latitude":"-41.91977790","longitude":"-72.14161320","name_ar":"Los Lagos"},{"id":2834,"name":"Los R\u00edos","country_id":44,"country_code":"CL","country_name":"Chile","state_code":"LR","type":null,"latitude":"-40.23102170","longitude":"-72.33111300","name_ar":"Los R\u00edos"},{"id":2836,"name":"Magallanes y de la Ant\u00e1rtica Chilena","country_id":44,"country_code":"CL","country_name":"Chile","state_code":"MA","type":null,"latitude":"-52.20643160","longitude":"-72.16850010","name_ar":"Magallanes y de la Ant\u00e1rtica Chilena"},{"id":2833,"name":"Maule","country_id":44,"country_code":"CL","country_name":"Chile","state_code":"ML","type":null,"latitude":"-35.51636030","longitude":"-71.57239530","name_ar":"Maule"},{"id":2831,"name":"\u00d1uble","country_id":44,"country_code":"CL","country_name":"Chile","state_code":"NB","type":null,"latitude":"-36.72257430","longitude":"-71.76224810","name_ar":"\u00d1uble"},{"id":2824,"name":"Regi\u00f3n Metropolitana de Santiago","country_id":44,"country_code":"CL","country_name":"Chile","state_code":"RM","type":null,"latitude":"-33.43755450","longitude":"-70.65048960","name_ar":"Regi\u00f3n Metropolitana de Santiago"},{"id":2837,"name":"Tarapac\u00e1","country_id":44,"country_code":"CL","country_name":"Chile","state_code":"TA","type":null,"latitude":"-20.20287990","longitude":"-69.28775350","name_ar":"Tarapac\u00e1"},{"id":2830,"name":"Valpara\u00edso","country_id":44,"country_code":"CL","country_name":"Chile","state_code":"VS","type":null,"latitude":"-33.04723800","longitude":"-71.61268850","name_ar":"Valpara\u00edso"}]