[{"id":2663,"name":"Adamawa","country_id":38,"country_code":"CM","country_name":"Cameroon","state_code":"AD","type":null,"latitude":"9.32647510","longitude":"12.39838530","name_ar":"Adamawa"},{"id":2660,"name":"Centre","country_id":38,"country_code":"CM","country_name":"Cameroon","state_code":"CE","type":null,"latitude":null,"longitude":null,"name_ar":"Centre"},{"id":2661,"name":"East","country_id":38,"country_code":"CM","country_name":"Cameroon","state_code":"ES","type":null,"latitude":"39.01853360","longitude":"-94.27924110","name_ar":"East"},{"id":2656,"name":"Far North","country_id":38,"country_code":"CM","country_name":"Cameroon","state_code":"EN","type":null,"latitude":"66.76134510","longitude":"124.12375300","name_ar":"Far North"},{"id":2662,"name":"Littoral","country_id":38,"country_code":"CM","country_name":"Cameroon","state_code":"LT","type":null,"latitude":"48.46227570","longitude":"-68.51780710","name_ar":"Littoral"},{"id":2665,"name":"North","country_id":38,"country_code":"CM","country_name":"Cameroon","state_code":"NO","type":null,"latitude":"37.09024000","longitude":"-95.71289100","name_ar":"North"},{"id":2657,"name":"Northwest","country_id":38,"country_code":"CM","country_name":"Cameroon","state_code":"NW","type":null,"latitude":"36.37118570","longitude":"-94.19346060","name_ar":"Northwest"},{"id":2659,"name":"South","country_id":38,"country_code":"CM","country_name":"Cameroon","state_code":"SU","type":null,"latitude":"37.63159500","longitude":"-97.34584090","name_ar":"South"},{"id":2658,"name":"Southwest","country_id":38,"country_code":"CM","country_name":"Cameroon","state_code":"SW","type":null,"latitude":"36.19088130","longitude":"-95.88974480","name_ar":"Southwest"},{"id":2664,"name":"West","country_id":38,"country_code":"CM","country_name":"Cameroon","state_code":"OU","type":null,"latitude":"37.03649890","longitude":"-95.67059870","name_ar":"West"}]