[{"id":1215,"name":"Alajuela Province","country_id":53,"country_code":"CR","country_name":"Costa Rica","state_code":"A","type":null,"latitude":"10.39158300","longitude":"-84.43827210","name_ar":"Alajuela Province"},{"id":1209,"name":"Guanacaste Province","country_id":53,"country_code":"CR","country_name":"Costa Rica","state_code":"G","type":null,"latitude":"10.62673990","longitude":"-85.44367060","name_ar":"Guanacaste Province"},{"id":1212,"name":"Heredia Province","country_id":53,"country_code":"CR","country_name":"Costa Rica","state_code":"H","type":null,"latitude":"10.47352300","longitude":"-84.01674230","name_ar":"Heredia Province"},{"id":1213,"name":"Lim\u00f3n Province","country_id":53,"country_code":"CR","country_name":"Costa Rica","state_code":"L","type":null,"latitude":"9.98963980","longitude":"-83.03324170","name_ar":"Lim\u00f3n Province"},{"id":1211,"name":"Provincia de Cartago","country_id":53,"country_code":"CR","country_name":"Costa Rica","state_code":"C","type":null,"latitude":"9.86223110","longitude":"-83.92141870","name_ar":"Provincia de Cartago"},{"id":1210,"name":"Puntarenas Province","country_id":53,"country_code":"CR","country_name":"Costa Rica","state_code":"P","type":null,"latitude":"9.21695310","longitude":"-83.33618800","name_ar":"Puntarenas Province"},{"id":1214,"name":"San Jos\u00e9 Province","country_id":53,"country_code":"CR","country_name":"Costa Rica","state_code":"SJ","type":null,"latitude":"9.91297270","longitude":"-84.07682940","name_ar":"San Jos\u00e9 Province"}]