[{"id":749,"name":"Famagusta District (Ma\u011fusa)","country_id":57,"country_code":"CY","country_name":"Cyprus","state_code":"04","type":"district","latitude":"35.28570230","longitude":"33.84112880","name_ar":"Famagusta District (Ma\u011fusa)"},{"id":744,"name":"Kyrenia District (Keryneia)","country_id":57,"country_code":"CY","country_name":"Cyprus","state_code":"06","type":"district","latitude":"35.29919400","longitude":"33.23632460","name_ar":"Kyrenia District (Keryneia)"},{"id":747,"name":"Larnaca District (Larnaka)","country_id":57,"country_code":"CY","country_name":"Cyprus","state_code":"03","type":"district","latitude":"34.85072060","longitude":"33.48319060","name_ar":"Larnaca District (Larnaka)"},{"id":748,"name":"Limassol District (Leymasun)","country_id":57,"country_code":"CY","country_name":"Cyprus","state_code":"02","type":"district","latitude":"34.70713010","longitude":"33.02261740","name_ar":"Limassol District (Leymasun)"},{"id":745,"name":"Nicosia District (Lefko\u015fa)","country_id":57,"country_code":"CY","country_name":"Cyprus","state_code":"01","type":"district","latitude":"35.18556590","longitude":"33.38227640","name_ar":"Nicosia District (Lefko\u015fa)"},{"id":746,"name":"Paphos District (Pafos)","country_id":57,"country_code":"CY","country_name":"Cyprus","state_code":"05","type":"district","latitude":"34.91645940","longitude":"32.49200880","name_ar":"Paphos District (Pafos)"}]