[{"id":4114,"name":"Azua Province","country_id":62,"country_code":"DO","country_name":"Dominican Republic","state_code":"02","type":null,"latitude":"18.45527090","longitude":"-70.73809280","name_ar":"Azua Province"},{"id":4105,"name":"Baoruco Province","country_id":62,"country_code":"DO","country_name":"Dominican Republic","state_code":"03","type":null,"latitude":"18.48798980","longitude":"-71.41822490","name_ar":"Baoruco Province"},{"id":4090,"name":"Barahona Province","country_id":62,"country_code":"DO","country_name":"Dominican Republic","state_code":"04","type":null,"latitude":"18.21390660","longitude":"-71.10437590","name_ar":"Barahona Province"},{"id":4107,"name":"Dajab\u00f3n Province","country_id":62,"country_code":"DO","country_name":"Dominican Republic","state_code":"05","type":null,"latitude":"19.54992410","longitude":"-71.70865140","name_ar":"Dajab\u00f3n Province"},{"id":4095,"name":"Distrito Nacional","country_id":62,"country_code":"DO","country_name":"Dominican Republic","state_code":"01","type":null,"latitude":"18.48605750","longitude":"-69.93121170","name_ar":"Distrito Nacional"},{"id":4113,"name":"Duarte Province","country_id":62,"country_code":"DO","country_name":"Dominican Republic","state_code":"06","type":null,"latitude":"19.20908230","longitude":"-70.02700040","name_ar":"Duarte Province"},{"id":4086,"name":"El Seibo Province","country_id":62,"country_code":"DO","country_name":"Dominican Republic","state_code":"08","type":null,"latitude":"18.76584960","longitude":"-69.04066800","name_ar":"El Seibo Province"},{"id":4102,"name":"Espaillat Province","country_id":62,"country_code":"DO","country_name":"Dominican Republic","state_code":"09","type":null,"latitude":"19.62776580","longitude":"-70.27867750","name_ar":"Espaillat Province"},{"id":4106,"name":"Hato Mayor Province","country_id":62,"country_code":"DO","country_name":"Dominican Republic","state_code":"30","type":null,"latitude":"18.76357990","longitude":"-69.25576370","name_ar":"Hato Mayor Province"},{"id":4089,"name":"Hermanas Mirabal Province","country_id":62,"country_code":"DO","country_name":"Dominican Republic","state_code":"19","type":null,"latitude":"19.37475590","longitude":"-70.35132350","name_ar":"Hermanas Mirabal Province"},{"id":4097,"name":"Independencia","country_id":62,"country_code":"DO","country_name":"Dominican Republic","state_code":"10","type":null,"latitude":"32.63357480","longitude":"-115.42892940","name_ar":"Independencia"},{"id":4109,"name":"La Altagracia Province","country_id":62,"country_code":"DO","country_name":"Dominican Republic","state_code":"11","type":null,"latitude":"18.58502360","longitude":"-68.62010720","name_ar":"La Altagracia Province"},{"id":4087,"name":"La Romana Province","country_id":62,"country_code":"DO","country_name":"Dominican Republic","state_code":"12","type":null,"latitude":"18.43102710","longitude":"-68.98373730","name_ar":"La Romana Province"},{"id":4116,"name":"La Vega Province","country_id":62,"country_code":"DO","country_name":"Dominican Republic","state_code":"13","type":null,"latitude":"19.22115540","longitude":"-70.52887530","name_ar":"La Vega Province"},{"id":4094,"name":"Mar\u00eda Trinidad S\u00e1nchez Province","country_id":62,"country_code":"DO","country_name":"Dominican Republic","state_code":"14","type":null,"latitude":"19.37345970","longitude":"-69.85144390","name_ar":"Mar\u00eda Trinidad S\u00e1nchez Province"},{"id":4099,"name":"Monse\u00f1or Nouel Province","country_id":62,"country_code":"DO","country_name":"Dominican Republic","state_code":"28","type":null,"latitude":"18.92152340","longitude":"-70.38368150","name_ar":"Monse\u00f1or Nouel Province"},{"id":4115,"name":"Monte Cristi Province","country_id":62,"country_code":"DO","country_name":"Dominican Republic","state_code":"15","type":null,"latitude":"19.73968990","longitude":"-71.44339840","name_ar":"Monte Cristi Province"},{"id":4111,"name":"Monte Plata Province","country_id":62,"country_code":"DO","country_name":"Dominican Republic","state_code":"29","type":null,"latitude":"18.80808780","longitude":"-69.78691460","name_ar":"Monte Plata Province"},{"id":4101,"name":"Pedernales Province","country_id":62,"country_code":"DO","country_name":"Dominican Republic","state_code":"16","type":null,"latitude":"17.85376260","longitude":"-71.33032090","name_ar":"Pedernales Province"},{"id":4096,"name":"Peravia Province","country_id":62,"country_code":"DO","country_name":"Dominican Republic","state_code":"17","type":null,"latitude":"18.27865940","longitude":"-70.33358870","name_ar":"Peravia Province"},{"id":4092,"name":"Puerto Plata Province","country_id":62,"country_code":"DO","country_name":"Dominican Republic","state_code":"18","type":null,"latitude":"19.75432250","longitude":"-70.83328470","name_ar":"Puerto Plata Province"},{"id":4103,"name":"Saman\u00e1 Province","country_id":62,"country_code":"DO","country_name":"Dominican Republic","state_code":"20","type":null,"latitude":"19.20583710","longitude":"-69.33629490","name_ar":"Saman\u00e1 Province"},{"id":4091,"name":"San Crist\u00f3bal Province","country_id":62,"country_code":"DO","country_name":"Dominican Republic","state_code":"21","type":null,"latitude":"18.41804140","longitude":"-70.10658490","name_ar":"San Crist\u00f3bal Province"},{"id":4112,"name":"San Jos\u00e9 de Ocoa Province","country_id":62,"country_code":"DO","country_name":"Dominican Republic","state_code":"31","type":null,"latitude":"18.54385800","longitude":"-70.50418160","name_ar":"San Jos\u00e9 de Ocoa Province"},{"id":4098,"name":"San Juan Province","country_id":62,"country_code":"DO","country_name":"Dominican Republic","state_code":"22","type":null,"latitude":"-31.52871270","longitude":"-68.53604030","name_ar":"San Juan Province"},{"id":4110,"name":"San Pedro de Macor\u00eds","country_id":62,"country_code":"DO","country_name":"Dominican Republic","state_code":"23","type":null,"latitude":"18.46266000","longitude":"-69.30512340","name_ar":"San Pedro de Macor\u00eds"},{"id":4088,"name":"S\u00e1nchez Ram\u00edrez Province","country_id":62,"country_code":"DO","country_name":"Dominican Republic","state_code":"24","type":null,"latitude":"19.05270600","longitude":"-70.14922640","name_ar":"S\u00e1nchez Ram\u00edrez Province"},{"id":4108,"name":"Santiago Province","country_id":62,"country_code":"DO","country_name":"Dominican Republic","state_code":"25","type":null,"latitude":"-33.45000000","longitude":"-70.66670000","name_ar":"Santiago Province"},{"id":4100,"name":"Santiago Rodr\u00edguez Province","country_id":62,"country_code":"DO","country_name":"Dominican Republic","state_code":"26","type":null,"latitude":"19.47131810","longitude":"-71.33958010","name_ar":"Santiago Rodr\u00edguez Province"},{"id":4093,"name":"Santo Domingo Province","country_id":62,"country_code":"DO","country_name":"Dominican Republic","state_code":"32","type":null,"latitude":"18.51042530","longitude":"-69.84040540","name_ar":"Santo Domingo Province"},{"id":4104,"name":"Valverde Province","country_id":62,"country_code":"DO","country_name":"Dominican Republic","state_code":"27","type":null,"latitude":"19.58812210","longitude":"-70.98033100","name_ar":"Valverde Province"}]