[{"id":3567,"name":"Harju County","country_id":69,"country_code":"EE","country_name":"Estonia","state_code":"37","type":null,"latitude":"59.33342390","longitude":"25.24669740","name_ar":"Harju County"},{"id":3555,"name":"Hiiu County","country_id":69,"country_code":"EE","country_name":"Estonia","state_code":"39","type":null,"latitude":"58.92395530","longitude":"22.59194680","name_ar":"Hiiu County"},{"id":3569,"name":"Ida-Viru County","country_id":69,"country_code":"EE","country_name":"Estonia","state_code":"44","type":null,"latitude":"59.25926630","longitude":"27.41365350","name_ar":"Ida-Viru County"},{"id":3566,"name":"J\u00e4rva County","country_id":69,"country_code":"EE","country_name":"Estonia","state_code":"51","type":null,"latitude":"58.88667130","longitude":"25.50006240","name_ar":"J\u00e4rva County"},{"id":3565,"name":"J\u00f5geva County","country_id":69,"country_code":"EE","country_name":"Estonia","state_code":"49","type":null,"latitude":"58.75061430","longitude":"26.36048780","name_ar":"J\u00f5geva County"},{"id":3568,"name":"L\u00e4\u00e4ne County","country_id":69,"country_code":"EE","country_name":"Estonia","state_code":"57","type":null,"latitude":"58.97227420","longitude":"23.87408340","name_ar":"L\u00e4\u00e4ne County"},{"id":3564,"name":"L\u00e4\u00e4ne-Viru County","country_id":69,"country_code":"EE","country_name":"Estonia","state_code":"59","type":null,"latitude":"59.30188160","longitude":"26.32803120","name_ar":"L\u00e4\u00e4ne-Viru County"},{"id":3562,"name":"P\u00e4rnu County","country_id":69,"country_code":"EE","country_name":"Estonia","state_code":"67","type":null,"latitude":"58.52619520","longitude":"24.40201590","name_ar":"P\u00e4rnu County"},{"id":3563,"name":"P\u00f5lva County","country_id":69,"country_code":"EE","country_name":"Estonia","state_code":"65","type":null,"latitude":"58.11606220","longitude":"27.20663940","name_ar":"P\u00f5lva County"},{"id":3559,"name":"Rapla County","country_id":69,"country_code":"EE","country_name":"Estonia","state_code":"70","type":null,"latitude":"58.84926250","longitude":"24.73465690","name_ar":"Rapla County"},{"id":3561,"name":"Saare County","country_id":69,"country_code":"EE","country_name":"Estonia","state_code":"74","type":null,"latitude":"58.48497210","longitude":"22.61364080","name_ar":"Saare County"},{"id":3557,"name":"Tartu County","country_id":69,"country_code":"EE","country_name":"Estonia","state_code":"78","type":null,"latitude":"58.40571280","longitude":"26.80157600","name_ar":"Tartu County"},{"id":3558,"name":"Valga County","country_id":69,"country_code":"EE","country_name":"Estonia","state_code":"82","type":null,"latitude":"57.91034410","longitude":"26.16018190","name_ar":"Valga County"},{"id":3556,"name":"Viljandi County","country_id":69,"country_code":"EE","country_name":"Estonia","state_code":"84","type":null,"latitude":"58.28217460","longitude":"25.57522330","name_ar":"Viljandi County"},{"id":3560,"name":"V\u00f5ru County","country_id":69,"country_code":"EE","country_name":"Estonia","state_code":"86","type":null,"latitude":"57.73773720","longitude":"27.13989380","name_ar":"V\u00f5ru County"}]