[{"id":5089,"name":"A Coru\u00f1a","country_id":207,"country_code":"ES","country_name":"Spain","state_code":"C","type":"province","latitude":"43.36190400","longitude":"-8.43019320","name_ar":"A Coru\u00f1a"},{"id":5109,"name":"Albacete","country_id":207,"country_code":"ES","country_name":"Spain","state_code":"AB","type":"province","latitude":"38.99223120","longitude":"-1.87809890","name_ar":"Albacete"},{"id":5108,"name":"Alicante","country_id":207,"country_code":"ES","country_name":"Spain","state_code":"A","type":"province","latitude":"38.35795460","longitude":"-0.54256340","name_ar":"Alicante"},{"id":5095,"name":"Almeria","country_id":207,"country_code":"ES","country_name":"Spain","state_code":"AL","type":"province","latitude":"36.84152680","longitude":"-2.47462610","name_ar":"Almeria"},{"id":5093,"name":"Araba","country_id":207,"country_code":"ES","country_name":"Spain","state_code":"VI","type":"province","latitude":"42.83951190","longitude":"-3.84237740","name_ar":"Araba"},{"id":1160,"name":"Asturias","country_id":207,"country_code":"ES","country_name":"Spain","state_code":"O","type":"province","latitude":"43.36139530","longitude":"-5.85932670","name_ar":"Asturias"},{"id":1189,"name":"\u00c1vila","country_id":207,"country_code":"ES","country_name":"Spain","state_code":"AV","type":"province","latitude":"40.69345110","longitude":"-4.89356270","name_ar":"\u00c1vila"},{"id":5092,"name":"Badajoz","country_id":207,"country_code":"ES","country_name":"Spain","state_code":"BA","type":"province","latitude":"38.87937480","longitude":"-7.02269830","name_ar":"Badajoz"},{"id":5102,"name":"Barcelona","country_id":207,"country_code":"ES","country_name":"Spain","state_code":"B","type":"province","latitude":"41.39266790","longitude":"2.14018910","name_ar":"Barcelona"},{"id":5094,"name":"Bizkaia","country_id":207,"country_code":"ES","country_name":"Spain","state_code":"BI","type":"province","latitude":"43.21921990","longitude":"-3.21110870","name_ar":"Bizkaia"},{"id":1146,"name":"Burgos","country_id":207,"country_code":"ES","country_name":"Spain","state_code":"BU","type":"province","latitude":"42.33807580","longitude":"-3.58126920","name_ar":"Burgos"},{"id":1190,"name":"Caceres","country_id":207,"country_code":"ES","country_name":"Spain","state_code":"CC","type":"province","latitude":"39.47163130","longitude":"-6.42573840","name_ar":"Caceres"},{"id":5096,"name":"C\u00e1diz","country_id":207,"country_code":"ES","country_name":"Spain","state_code":"CA","type":"province","latitude":"36.51638510","longitude":"-6.29997670","name_ar":"C\u00e1diz"},{"id":5222,"name":"Canarias","country_id":207,"country_code":"ES","country_name":"Spain","state_code":"CN","type":"autonomous community","latitude":"28.29160000","longitude":"16.62910000","name_ar":"Canarias"},{"id":1170,"name":"Cantabria","country_id":207,"country_code":"ES","country_name":"Spain","state_code":"S","type":"province","latitude":"43.18283960","longitude":"-3.98784270","name_ar":"Cantabria"},{"id":5110,"name":"Castell\u00f3n","country_id":207,"country_code":"ES","country_name":"Spain","state_code":"CS","type":"province","latitude":"39.98114350","longitude":"0.00884070","name_ar":"Castell\u00f3n"},{"id":5223,"name":"Ceuta","country_id":207,"country_code":"ES","country_name":"Spain","state_code":"CE","type":"autonomous city in North Africa","latitude":"35.88900000","longitude":"-5.31870000","name_ar":"Ceuta"},{"id":5105,"name":"Ciudad Real","country_id":207,"country_code":"ES","country_name":"Spain","state_code":"CR","type":"province","latitude":"38.98607580","longitude":"-3.94449750","name_ar":"Ciudad Real"},{"id":5097,"name":"C\u00f3rdoba","country_id":207,"country_code":"ES","country_name":"Spain","state_code":"CO","type":"province","latitude":"36.51638510","longitude":"-6.29997670","name_ar":"C\u00f3rdoba"},{"id":5106,"name":"Cuenca","country_id":207,"country_code":"ES","country_name":"Spain","state_code":"CU","type":"province","latitude":"40.06200360","longitude":"-2.16553440","name_ar":"Cuenca"},{"id":1191,"name":"Gipuzkoa","country_id":207,"country_code":"ES","country_name":"Spain","state_code":"SS","type":"province","latitude":"43.14523600","longitude":"-2.44618250","name_ar":"Gipuzkoa"},{"id":5103,"name":"Girona","country_id":207,"country_code":"ES","country_name":"Spain","state_code":"GI","type":"province","latitude":"41.98034450","longitude":"2.80115770","name_ar":"Girona"},{"id":5098,"name":"Granada","country_id":207,"country_code":"ES","country_name":"Spain","state_code":"GR","type":"province","latitude":"37.18094110","longitude":"-3.62629100","name_ar":"Granada"},{"id":5107,"name":"Guadalajara","country_id":207,"country_code":"ES","country_name":"Spain","state_code":"GU","type":"province","latitude":"40.63222140","longitude":"-3.19068200","name_ar":"Guadalajara"},{"id":5099,"name":"Huelva","country_id":207,"country_code":"ES","country_name":"Spain","state_code":"H","type":"province","latitude":"37.27086660","longitude":"-6.95719990","name_ar":"Huelva"},{"id":1177,"name":"Huesca","country_id":207,"country_code":"ES","country_name":"Spain","state_code":"HU","type":"province","latitude":"41.59762750","longitude":"-0.90566230","name_ar":"Huesca"},{"id":1174,"name":"Islas Baleares","country_id":207,"country_code":"ES","country_name":"Spain","state_code":"PM","type":"province","latitude":"39.35877590","longitude":"2.73563280","name_ar":"Islas Baleares"},{"id":5100,"name":"Ja\u00e9n","country_id":207,"country_code":"ES","country_name":"Spain","state_code":"J","type":"province","latitude":"37.78009310","longitude":"-3.81437450","name_ar":"Ja\u00e9n"},{"id":1171,"name":"La Rioja","country_id":207,"country_code":"ES","country_name":"Spain","state_code":"LO","type":"province","latitude":"42.28707330","longitude":"-2.53960300","name_ar":"La Rioja"},{"id":1185,"name":"Las Palmas","country_id":207,"country_code":"ES","country_name":"Spain","state_code":"GC","type":"province","latitude":"28.29156370","longitude":"-16.62913040","name_ar":"Las Palmas"},{"id":1200,"name":"L\u00e9on","country_id":207,"country_code":"ES","country_name":"Spain","state_code":"LE","type":"province","latitude":"42.59870410","longitude":"-5.56708390","name_ar":"L\u00e9on"},{"id":5104,"name":"Lleida","country_id":207,"country_code":"ES","country_name":"Spain","state_code":"L","type":"province","latitude":"41.61837310","longitude":"0.60242530","name_ar":"Lleida"},{"id":5090,"name":"Lugo","country_id":207,"country_code":"ES","country_name":"Spain","state_code":"LU","type":"province","latitude":"43.01231370","longitude":"-7.57400960","name_ar":"Lugo"},{"id":1158,"name":"Madrid","country_id":207,"country_code":"ES","country_name":"Spain","state_code":"M","type":"province","latitude":"40.41675150","longitude":"-3.70383220","name_ar":"Madrid"},{"id":5101,"name":"M\u00e1laga","country_id":207,"country_code":"ES","country_name":"Spain","state_code":"MA","type":"province","latitude":"36.71820150","longitude":"-4.51930600","name_ar":"M\u00e1laga"},{"id":5224,"name":"Melilla","country_id":207,"country_code":"ES","country_name":"Spain","state_code":"ML","type":"autonomous city in North Africa","latitude":"35.29370000","longitude":"-2.93830000","name_ar":"Melilla"},{"id":1176,"name":"Murcia","country_id":207,"country_code":"ES","country_name":"Spain","state_code":"MU","type":"province","latitude":"38.13981410","longitude":"-1.36621600","name_ar":"Murcia"},{"id":1204,"name":"Navarra","country_id":207,"country_code":"ES","country_name":"Spain","state_code":"NA","type":"province","latitude":"42.69539090","longitude":"-1.67606910","name_ar":"Navarra"},{"id":5091,"name":"Ourense","country_id":207,"country_code":"ES","country_name":"Spain","state_code":"OR","type":"province","latitude":"42.33836130","longitude":"-7.88119510","name_ar":"Ourense"},{"id":1157,"name":"Palencia","country_id":207,"country_code":"ES","country_name":"Spain","state_code":"P","type":"province","latitude":"42.00968320","longitude":"-4.52879490","name_ar":"Palencia"},{"id":1167,"name":"Pontevedra","country_id":207,"country_code":"ES","country_name":"Spain","state_code":"PO","type":"province","latitude":"42.43385950","longitude":"-8.65685520","name_ar":"Pontevedra"},{"id":1147,"name":"Salamanca","country_id":207,"country_code":"ES","country_name":"Spain","state_code":"SA","type":"province","latitude":"40.95152630","longitude":"-6.23759470","name_ar":"Salamanca"},{"id":5112,"name":"Santa Cruz de Tenerife","country_id":207,"country_code":"ES","country_name":"Spain","state_code":"TF","type":"province","latitude":"28.45789140","longitude":"-16.32135390","name_ar":"Santa Cruz de Tenerife"},{"id":1192,"name":"Segovia","country_id":207,"country_code":"ES","country_name":"Spain","state_code":"SG","type":"province","latitude":"40.94292960","longitude":"-4.10889420","name_ar":"Segovia"},{"id":1193,"name":"Sevilla","country_id":207,"country_code":"ES","country_name":"Spain","state_code":"SE","type":"province","latitude":"37.37535010","longitude":"-6.02509730","name_ar":"Sevilla"},{"id":1208,"name":"Soria","country_id":207,"country_code":"ES","country_name":"Spain","state_code":"SO","type":"province","latitude":"41.76654640","longitude":"-2.47903060","name_ar":"Soria"},{"id":1203,"name":"Tarragona","country_id":207,"country_code":"ES","country_name":"Spain","state_code":"T","type":"province","latitude":"41.12586420","longitude":"1.20356420","name_ar":"Tarragona"},{"id":5111,"name":"Teruel","country_id":207,"country_code":"ES","country_name":"Spain","state_code":"TE","type":"province","latitude":"40.34504100","longitude":"-1.11847440","name_ar":"Teruel"},{"id":1205,"name":"Toledo","country_id":207,"country_code":"ES","country_name":"Spain","state_code":"TO","type":"province","latitude":"39.86232000","longitude":"-4.06946920","name_ar":"Toledo"},{"id":1175,"name":"Valencia","country_id":207,"country_code":"ES","country_name":"Spain","state_code":"V","type":"province","latitude":"39.48401080","longitude":"-0.75328090","name_ar":"Valencia"},{"id":1183,"name":"Valladolid","country_id":207,"country_code":"ES","country_name":"Spain","state_code":"VA","type":"province","latitude":"41.65173750","longitude":"-4.72449500","name_ar":"Valladolid"},{"id":1161,"name":"Zamora","country_id":207,"country_code":"ES","country_name":"Spain","state_code":"ZA","type":"province","latitude":"41.60957440","longitude":"-5.89871390","name_ar":"Zamora"},{"id":5113,"name":"Zaragoza","country_id":207,"country_code":"ES","country_name":"Spain","state_code":"Z","type":"province","latitude":"41.65175010","longitude":"-0.93000020","name_ar":"Zaragoza"}]