[{"id":4967,"name":"Ain","country_id":75,"country_code":"FR","country_name":"France","state_code":"01","type":"metropolitan department","latitude":"46.06508600","longitude":"4.88861500","name_ar":"Ain"},{"id":4968,"name":"Aisne","country_id":75,"country_code":"FR","country_name":"France","state_code":"02","type":"metropolitan department","latitude":"49.45289210","longitude":"3.04651110","name_ar":"Aisne"},{"id":4969,"name":"Allier","country_id":75,"country_code":"FR","country_name":"France","state_code":"03","type":"metropolitan department","latitude":"46.36708630","longitude":"2.58082770","name_ar":"Allier"},{"id":4970,"name":"Alpes-de-Haute-Provence","country_id":75,"country_code":"FR","country_name":"France","state_code":"04","type":"metropolitan department","latitude":"44.16377520","longitude":"5.67247800","name_ar":"Alpes-de-Haute-Provence"},{"id":4972,"name":"Alpes-Maritimes","country_id":75,"country_code":"FR","country_name":"France","state_code":"06","type":"metropolitan department","latitude":"43.92041700","longitude":"6.61678220","name_ar":"Alpes-Maritimes"},{"id":4811,"name":"Alsace","country_id":75,"country_code":"FR","country_name":"France","state_code":"6AE","type":"European collectivity","latitude":"48.31817950","longitude":"7.44162410","name_ar":"Alsace"},{"id":4973,"name":"Ard\u00e8che","country_id":75,"country_code":"FR","country_name":"France","state_code":"07","type":"metropolitan department","latitude":"44.81486950","longitude":"3.81334830","name_ar":"Ard\u00e8che"},{"id":4974,"name":"Ardennes","country_id":75,"country_code":"FR","country_name":"France","state_code":"08","type":"metropolitan department","latitude":"49.69759510","longitude":"4.14895760","name_ar":"Ardennes"},{"id":4975,"name":"Ari\u00e8ge","country_id":75,"country_code":"FR","country_name":"France","state_code":"09","type":"metropolitan department","latitude":"42.94347830","longitude":"0.94048640","name_ar":"Ari\u00e8ge"},{"id":4976,"name":"Aube","country_id":75,"country_code":"FR","country_name":"France","state_code":"10","type":"metropolitan department","latitude":"48.31975470","longitude":"3.56371040","name_ar":"Aube"},{"id":4977,"name":"Aude","country_id":75,"country_code":"FR","country_name":"France","state_code":"11","type":"metropolitan department","latitude":"43.05411400","longitude":"1.90384760","name_ar":"Aude"},{"id":4798,"name":"Auvergne-Rh\u00f4ne-Alpes","country_id":75,"country_code":"FR","country_name":"France","state_code":"ARA","type":"metropolitan region","latitude":"45.44714310","longitude":"4.38525070","name_ar":"Auvergne-Rh\u00f4ne-Alpes"},{"id":4978,"name":"Aveyron","country_id":75,"country_code":"FR","country_name":"France","state_code":"12","type":"metropolitan department","latitude":"44.31563620","longitude":"2.08523790","name_ar":"Aveyron"},{"id":5035,"name":"Bas-Rhin","country_id":75,"country_code":"FR","country_name":"France","state_code":"67","type":"metropolitan department","latitude":"48.59864440","longitude":"7.02666760","name_ar":"Bas-Rhin"},{"id":4979,"name":"Bouches-du-Rh\u00f4ne","country_id":75,"country_code":"FR","country_name":"France","state_code":"13","type":"metropolitan department","latitude":"43.54038650","longitude":"4.46138290","name_ar":"Bouches-du-Rh\u00f4ne"},{"id":4825,"name":"Bourgogne-Franche-Comt\u00e9","country_id":75,"country_code":"FR","country_name":"France","state_code":"BFC","type":"metropolitan region","latitude":"47.28051270","longitude":"4.99943720","name_ar":"Bourgogne-Franche-Comt\u00e9"},{"id":4807,"name":"Bretagne","country_id":75,"country_code":"FR","country_name":"France","state_code":"BRE","type":"metropolitan region","latitude":"48.20204710","longitude":"-2.93264350","name_ar":"Bretagne"},{"id":4981,"name":"Calvados","country_id":75,"country_code":"FR","country_name":"France","state_code":"14","type":"metropolitan department","latitude":"49.09035140","longitude":"-0.91706480","name_ar":"Calvados"},{"id":4982,"name":"Cantal","country_id":75,"country_code":"FR","country_name":"France","state_code":"15","type":"metropolitan department","latitude":"45.04921770","longitude":"2.15672720","name_ar":"Cantal"},{"id":4818,"name":"Centre-Val de Loire","country_id":75,"country_code":"FR","country_name":"France","state_code":"CVL","type":"metropolitan region","latitude":"47.75156860","longitude":"1.67506310","name_ar":"Centre-Val de Loire"},{"id":4983,"name":"Charente","country_id":75,"country_code":"FR","country_name":"France","state_code":"16","type":"metropolitan department","latitude":"45.66584790","longitude":"-0.31845770","name_ar":"Charente"},{"id":4984,"name":"Charente-Maritime","country_id":75,"country_code":"FR","country_name":"France","state_code":"17","type":"metropolitan department","latitude":"45.72968280","longitude":"-1.33881160","name_ar":"Charente-Maritime"},{"id":4985,"name":"Cher","country_id":75,"country_code":"FR","country_name":"France","state_code":"18","type":"metropolitan department","latitude":"47.02436280","longitude":"1.86627320","name_ar":"Cher"},{"id":5064,"name":"Clipperton","country_id":75,"country_code":"FR","country_name":"France","state_code":"CP","type":"dependency","latitude":"10.28335410","longitude":"-109.22542150","name_ar":"Clipperton"},{"id":4986,"name":"Corr\u00e8ze","country_id":75,"country_code":"FR","country_name":"France","state_code":"19","type":"metropolitan department","latitude":"45.34237070","longitude":"1.31717330","name_ar":"Corr\u00e8ze"},{"id":4806,"name":"Corse","country_id":75,"country_code":"FR","country_name":"France","state_code":"20R","type":"metropolitan collectivity with special status","latitude":"42.03960420","longitude":"9.01289260","name_ar":"Corse"},{"id":4996,"name":"Corse-du-Sud","country_id":75,"country_code":"FR","country_name":"France","state_code":"2A","type":"metropolitan department","latitude":"41.85720550","longitude":"8.41091830","name_ar":"Corse-du-Sud"},{"id":4987,"name":"C\u00f4te-d'Or","country_id":75,"country_code":"FR","country_name":"France","state_code":"21","type":"metropolitan department","latitude":"47.46513020","longitude":"4.23154950","name_ar":"C\u00f4te-d'Or"},{"id":4988,"name":"C\u00f4tes-d'Armor","country_id":75,"country_code":"FR","country_name":"France","state_code":"22","type":"metropolitan department","latitude":"48.46633360","longitude":"-3.34789610","name_ar":"C\u00f4tes-d'Armor"},{"id":4989,"name":"Creuse","country_id":75,"country_code":"FR","country_name":"France","state_code":"23","type":"metropolitan department","latitude":"46.05903940","longitude":"1.43150500","name_ar":"Creuse"},{"id":5047,"name":"Deux-S\u00e8vres","country_id":75,"country_code":"FR","country_name":"France","state_code":"79","type":"metropolitan department","latitude":"46.53868170","longitude":"-0.90199480","name_ar":"Deux-S\u00e8vres"},{"id":4990,"name":"Dordogne","country_id":75,"country_code":"FR","country_name":"France","state_code":"24","type":"metropolitan department","latitude":"45.14234160","longitude":"0.14274080","name_ar":"Dordogne"},{"id":4991,"name":"Doubs","country_id":75,"country_code":"FR","country_name":"France","state_code":"25","type":"metropolitan department","latitude":"46.93217740","longitude":"6.34762140","name_ar":"Doubs"},{"id":4992,"name":"Dr\u00f4me","country_id":75,"country_code":"FR","country_name":"France","state_code":"26","type":"metropolitan department","latitude":"44.72933570","longitude":"4.67821580","name_ar":"Dr\u00f4me"},{"id":5059,"name":"Essonne","country_id":75,"country_code":"FR","country_name":"France","state_code":"91","type":"metropolitan department","latitude":"48.53046150","longitude":"1.96990560","name_ar":"Essonne"},{"id":4993,"name":"Eure","country_id":75,"country_code":"FR","country_name":"France","state_code":"27","type":"metropolitan department","latitude":"49.07540350","longitude":"0.48937320","name_ar":"Eure"},{"id":4994,"name":"Eure-et-Loir","country_id":75,"country_code":"FR","country_name":"France","state_code":"28","type":"metropolitan department","latitude":"48.44697840","longitude":"0.81470250","name_ar":"Eure-et-Loir"},{"id":4995,"name":"Finist\u00e8re","country_id":75,"country_code":"FR","country_name":"France","state_code":"29","type":"metropolitan department","latitude":"48.22696100","longitude":"-4.82437330","name_ar":"Finist\u00e8re"},{"id":4822,"name":"French Guiana","country_id":75,"country_code":"FR","country_name":"France","state_code":"973","type":"overseas region","latitude":"3.93388900","longitude":"-53.12578200","name_ar":"French Guiana"},{"id":4824,"name":"French Polynesia","country_id":75,"country_code":"FR","country_name":"France","state_code":"PF","type":"overseas collectivity","latitude":"-17.67974200","longitude":"-149.40684300","name_ar":"French Polynesia"},{"id":5065,"name":"French Southern and Antarctic Lands","country_id":75,"country_code":"FR","country_name":"France","state_code":"TF","type":"overseas territory","latitude":"-47.54466040","longitude":"51.28375420","name_ar":"French Southern and Antarctic Lands"},{"id":4998,"name":"Gard","country_id":75,"country_code":"FR","country_name":"France","state_code":"30","type":"metropolitan department","latitude":"43.95952760","longitude":"3.49356810","name_ar":"Gard"},{"id":5000,"name":"Gers","country_id":75,"country_code":"FR","country_name":"France","state_code":"32","type":"metropolitan department","latitude":"43.69505340","longitude":"-0.09997280","name_ar":"Gers"},{"id":5001,"name":"Gironde","country_id":75,"country_code":"FR","country_name":"France","state_code":"33","type":"metropolitan department","latitude":"44.89584690","longitude":"-1.59405320","name_ar":"Gironde"},{"id":4820,"name":"Grand-Est","country_id":75,"country_code":"FR","country_name":"France","state_code":"GES","type":"metropolitan region","latitude":"48.69980300","longitude":"6.18780740","name_ar":"Grand-Est"},{"id":4829,"name":"Guadeloupe","country_id":75,"country_code":"FR","country_name":"France","state_code":"971","type":"overseas region","latitude":"16.26500000","longitude":"-61.55100000","name_ar":"Guadeloupe"},{"id":5036,"name":"Haut-Rhin","country_id":75,"country_code":"FR","country_name":"France","state_code":"68","type":"metropolitan department","latitude":"47.86537740","longitude":"6.67113810","name_ar":"Haut-Rhin"},{"id":4997,"name":"Haute-Corse","country_id":75,"country_code":"FR","country_name":"France","state_code":"2B","type":"metropolitan department","latitude":"42.42958660","longitude":"8.50625610","name_ar":"Haute-Corse"},{"id":4999,"name":"Haute-Garonne","country_id":75,"country_code":"FR","country_name":"France","state_code":"31","type":"metropolitan department","latitude":"43.30505550","longitude":"0.68455150","name_ar":"Haute-Garonne"},{"id":5011,"name":"Haute-Loire","country_id":75,"country_code":"FR","country_name":"France","state_code":"43","type":"metropolitan department","latitude":"45.08538060","longitude":"3.22607070","name_ar":"Haute-Loire"},{"id":5020,"name":"Haute-Marne","country_id":75,"country_code":"FR","country_name":"France","state_code":"52","type":"metropolitan department","latitude":"48.13248210","longitude":"4.69834990","name_ar":"Haute-Marne"},{"id":5039,"name":"Haute-Sa\u00f4ne","country_id":75,"country_code":"FR","country_name":"France","state_code":"70","type":"metropolitan department","latitude":"47.63789960","longitude":"5.53550550","name_ar":"Haute-Sa\u00f4ne"},{"id":5043,"name":"Haute-Savoie","country_id":75,"country_code":"FR","country_name":"France","state_code":"74","type":"metropolitan department","latitude":"46.04452770","longitude":"5.86413800","name_ar":"Haute-Savoie"},{"id":5055,"name":"Haute-Vienne","country_id":75,"country_code":"FR","country_name":"France","state_code":"87","type":"metropolitan department","latitude":"45.91868780","longitude":"0.70972060","name_ar":"Haute-Vienne"},{"id":4971,"name":"Hautes-Alpes","country_id":75,"country_code":"FR","country_name":"France","state_code":"05","type":"metropolitan department","latitude":"44.65626820","longitude":"5.68732110","name_ar":"Hautes-Alpes"},{"id":5033,"name":"Hautes-Pyr\u00e9n\u00e9es","country_id":75,"country_code":"FR","country_name":"France","state_code":"65","type":"metropolitan department","latitude":"43.14294620","longitude":"-0.40097360","name_ar":"Hautes-Pyr\u00e9n\u00e9es"},{"id":4828,"name":"Hauts-de-France","country_id":75,"country_code":"FR","country_name":"France","state_code":"HDF","type":"metropolitan region","latitude":"50.48011530","longitude":"2.79372650","name_ar":"Hauts-de-France"},{"id":5060,"name":"Hauts-de-Seine","country_id":75,"country_code":"FR","country_name":"France","state_code":"92","type":"metropolitan department","latitude":"48.84030080","longitude":"2.10125590","name_ar":"Hauts-de-Seine"},{"id":5002,"name":"H\u00e9rault","country_id":75,"country_code":"FR","country_name":"France","state_code":"34","type":"metropolitan department","latitude":"43.59111200","longitude":"2.80661080","name_ar":"H\u00e9rault"},{"id":4796,"name":"\u00cele-de-France","country_id":75,"country_code":"FR","country_name":"France","state_code":"IDF","type":"metropolitan region","latitude":"48.84991980","longitude":"2.63704110","name_ar":"\u00cele-de-France"},{"id":5003,"name":"Ille-et-Vilaine","country_id":75,"country_code":"FR","country_name":"France","state_code":"35","type":"metropolitan department","latitude":"48.17624840","longitude":"-2.21304010","name_ar":"Ille-et-Vilaine"},{"id":5004,"name":"Indre","country_id":75,"country_code":"FR","country_name":"France","state_code":"36","type":"metropolitan department","latitude":"46.81175500","longitude":"0.97555230","name_ar":"Indre"},{"id":5005,"name":"Indre-et-Loire","country_id":75,"country_code":"FR","country_name":"France","state_code":"37","type":"metropolitan department","latitude":"47.22285820","longitude":"0.14896190","name_ar":"Indre-et-Loire"},{"id":5006,"name":"Is\u00e8re","country_id":75,"country_code":"FR","country_name":"France","state_code":"38","type":"metropolitan department","latitude":"45.28922710","longitude":"4.99023550","name_ar":"Is\u00e8re"},{"id":5007,"name":"Jura","country_id":75,"country_code":"FR","country_name":"France","state_code":"39","type":"metropolitan department","latitude":"46.78287410","longitude":"5.16918440","name_ar":"Jura"},{"id":4823,"name":"La R\u00e9union","country_id":75,"country_code":"FR","country_name":"France","state_code":"974","type":"overseas region","latitude":"-21.11514100","longitude":"55.53638400","name_ar":"La R\u00e9union"},{"id":5008,"name":"Landes","country_id":75,"country_code":"FR","country_name":"France","state_code":"40","type":"metropolitan department","latitude":"44.00950800","longitude":"-1.25385790","name_ar":"Landes"},{"id":5009,"name":"Loir-et-Cher","country_id":75,"country_code":"FR","country_name":"France","state_code":"41","type":"metropolitan department","latitude":"47.65937600","longitude":"0.85376310","name_ar":"Loir-et-Cher"},{"id":5010,"name":"Loire","country_id":75,"country_code":"FR","country_name":"France","state_code":"42","type":"metropolitan department","latitude":"46.35228120","longitude":"-1.17563390","name_ar":"Loire"},{"id":5012,"name":"Loire-Atlantique","country_id":75,"country_code":"FR","country_name":"France","state_code":"44","type":"metropolitan department","latitude":"47.34757210","longitude":"-2.34663120","name_ar":"Loire-Atlantique"},{"id":5013,"name":"Loiret","country_id":75,"country_code":"FR","country_name":"France","state_code":"45","type":"metropolitan department","latitude":"47.91354310","longitude":"1.76009900","name_ar":"Loiret"},{"id":5014,"name":"Lot","country_id":75,"country_code":"FR","country_name":"France","state_code":"46","type":"metropolitan department","latitude":"44.62460700","longitude":"1.03576310","name_ar":"Lot"},{"id":5015,"name":"Lot-et-Garonne","country_id":75,"country_code":"FR","country_name":"France","state_code":"47","type":"metropolitan department","latitude":"44.36873140","longitude":"-0.09161690","name_ar":"Lot-et-Garonne"},{"id":5016,"name":"Loz\u00e8re","country_id":75,"country_code":"FR","country_name":"France","state_code":"48","type":"metropolitan department","latitude":"44.54227790","longitude":"2.92934590","name_ar":"Loz\u00e8re"},{"id":5017,"name":"Maine-et-Loire","country_id":75,"country_code":"FR","country_name":"France","state_code":"49","type":"metropolitan department","latitude":"47.38900340","longitude":"-1.12025270","name_ar":"Maine-et-Loire"},{"id":5018,"name":"Manche","country_id":75,"country_code":"FR","country_name":"France","state_code":"50","type":"metropolitan department","latitude":"49.08817340","longitude":"-2.46272090","name_ar":"Manche"},{"id":5019,"name":"Marne","country_id":75,"country_code":"FR","country_name":"France","state_code":"51","type":"metropolitan department","latitude":"48.96107450","longitude":"3.65737670","name_ar":"Marne"},{"id":4827,"name":"Martinique","country_id":75,"country_code":"FR","country_name":"France","state_code":"972","type":"overseas region","latitude":"14.64152800","longitude":"-61.02417400","name_ar":"Martinique"},{"id":5021,"name":"Mayenne","country_id":75,"country_code":"FR","country_name":"France","state_code":"53","type":"metropolitan department","latitude":"48.30668420","longitude":"-0.64901820","name_ar":"Mayenne"},{"id":4797,"name":"Mayotte","country_id":75,"country_code":"FR","country_name":"France","state_code":"976","type":"overseas region","latitude":"-12.82750000","longitude":"45.16624400","name_ar":"Mayotte"},{"id":5038,"name":"M\u00e9tropole de Lyon","country_id":75,"country_code":"FR","country_name":"France","state_code":"69M","type":"metropolitan department","latitude":"45.74826290","longitude":"4.59584040","name_ar":"M\u00e9tropole de Lyon"},{"id":5022,"name":"Meurthe-et-Moselle","country_id":75,"country_code":"FR","country_name":"France","state_code":"54","type":"metropolitan department","latitude":"48.95566150","longitude":"5.71423500","name_ar":"Meurthe-et-Moselle"},{"id":5023,"name":"Meuse","country_id":75,"country_code":"FR","country_name":"France","state_code":"55","type":"metropolitan department","latitude":"49.01246200","longitude":"4.81087340","name_ar":"Meuse"},{"id":5024,"name":"Morbihan","country_id":75,"country_code":"FR","country_name":"France","state_code":"56","type":"metropolitan department","latitude":"47.74395180","longitude":"-3.44555240","name_ar":"Morbihan"},{"id":5025,"name":"Moselle","country_id":75,"country_code":"FR","country_name":"France","state_code":"57","type":"metropolitan department","latitude":"49.02045660","longitude":"6.20553220","name_ar":"Moselle"},{"id":5026,"name":"Ni\u00e8vre","country_id":75,"country_code":"FR","country_name":"France","state_code":"58","type":"metropolitan department","latitude":"47.11921640","longitude":"2.97797130","name_ar":"Ni\u00e8vre"},{"id":5027,"name":"Nord","country_id":75,"country_code":"FR","country_name":"France","state_code":"59","type":"metropolitan department","latitude":"50.52854770","longitude":"2.60007760","name_ar":"Nord"},{"id":4804,"name":"Normandie","country_id":75,"country_code":"FR","country_name":"France","state_code":"NOR","type":"metropolitan region","latitude":"48.87987040","longitude":"0.17125290","name_ar":"Normandie"},{"id":4795,"name":"Nouvelle-Aquitaine","country_id":75,"country_code":"FR","country_name":"France","state_code":"NAQ","type":"metropolitan region","latitude":"45.70871820","longitude":"0.62689100","name_ar":"Nouvelle-Aquitaine"},{"id":4799,"name":"Occitanie","country_id":75,"country_code":"FR","country_name":"France","state_code":"OCC","type":"metropolitan region","latitude":"43.89272320","longitude":"3.28276250","name_ar":"Occitanie"},{"id":5028,"name":"Oise","country_id":75,"country_code":"FR","country_name":"France","state_code":"60","type":"metropolitan department","latitude":"49.41173350","longitude":"1.86688250","name_ar":"Oise"},{"id":5029,"name":"Orne","country_id":75,"country_code":"FR","country_name":"France","state_code":"61","type":"metropolitan department","latitude":"48.57576440","longitude":"-0.50242950","name_ar":"Orne"},{"id":4816,"name":"Paris","country_id":75,"country_code":"FR","country_name":"France","state_code":"75C","type":"metropolitan collectivity with special status","latitude":"48.85661400","longitude":"2.35222190","name_ar":"Paris"},{"id":5030,"name":"Pas-de-Calais","country_id":75,"country_code":"FR","country_name":"France","state_code":"62","type":"metropolitan department","latitude":"50.51446990","longitude":"1.81149800","name_ar":"Pas-de-Calais"},{"id":4802,"name":"Pays-de-la-Loire","country_id":75,"country_code":"FR","country_name":"France","state_code":"PDL","type":"metropolitan region","latitude":"47.76328360","longitude":"-0.32996870","name_ar":"Pays-de-la-Loire"},{"id":4812,"name":"Provence-Alpes-C\u00f4te-d\u2019Azur","country_id":75,"country_code":"FR","country_name":"France","state_code":"PAC","type":"metropolitan region","latitude":"43.93516910","longitude":"6.06791940","name_ar":"Provence-Alpes-C\u00f4te-d\u2019Azur"},{"id":5031,"name":"Puy-de-D\u00f4me","country_id":75,"country_code":"FR","country_name":"France","state_code":"63","type":"metropolitan department","latitude":"45.77141850","longitude":"2.62626760","name_ar":"Puy-de-D\u00f4me"},{"id":5032,"name":"Pyr\u00e9n\u00e9es-Atlantiques","country_id":75,"country_code":"FR","country_name":"France","state_code":"64","type":"metropolitan department","latitude":"43.18681700","longitude":"-1.44170710","name_ar":"Pyr\u00e9n\u00e9es-Atlantiques"},{"id":5034,"name":"Pyr\u00e9n\u00e9es-Orientales","country_id":75,"country_code":"FR","country_name":"France","state_code":"66","type":"metropolitan department","latitude":"42.62541790","longitude":"1.88929580","name_ar":"Pyr\u00e9n\u00e9es-Orientales"},{"id":5037,"name":"Rh\u00f4ne","country_id":75,"country_code":"FR","country_name":"France","state_code":"69","type":"metropolitan department","latitude":"44.93433000","longitude":"4.24093290","name_ar":"Rh\u00f4ne"},{"id":4821,"name":"Saint Pierre and Miquelon","country_id":75,"country_code":"FR","country_name":"France","state_code":"PM","type":"overseas collectivity","latitude":"46.88520000","longitude":"-56.31590000","name_ar":"Saint Pierre and Miquelon"},{"id":4794,"name":"Saint-Barth\u00e9lemy","country_id":75,"country_code":"FR","country_name":"France","state_code":"BL","type":"overseas collectivity","latitude":"17.90051340","longitude":"-62.82058710","name_ar":"Saint-Barth\u00e9lemy"},{"id":4809,"name":"Saint-Martin","country_id":75,"country_code":"FR","country_name":"France","state_code":"MF","type":"overseas collectivity","latitude":"18.07082980","longitude":"-63.05008090","name_ar":"Saint-Martin"},{"id":5040,"name":"Sa\u00f4ne-et-Loire","country_id":75,"country_code":"FR","country_name":"France","state_code":"71","type":"metropolitan department","latitude":"46.65548830","longitude":"3.98350500","name_ar":"Sa\u00f4ne-et-Loire"},{"id":5041,"name":"Sarthe","country_id":75,"country_code":"FR","country_name":"France","state_code":"72","type":"metropolitan department","latitude":"48.02627330","longitude":"-0.32613170","name_ar":"Sarthe"},{"id":5042,"name":"Savoie","country_id":75,"country_code":"FR","country_name":"France","state_code":"73","type":"metropolitan department","latitude":"45.49469900","longitude":"5.84329840","name_ar":"Savoie"},{"id":5045,"name":"Seine-et-Marne","country_id":75,"country_code":"FR","country_name":"France","state_code":"77","type":"metropolitan department","latitude":"48.61853940","longitude":"2.41525610","name_ar":"Seine-et-Marne"},{"id":5044,"name":"Seine-Maritime","country_id":75,"country_code":"FR","country_name":"France","state_code":"76","type":"metropolitan department","latitude":"49.66096810","longitude":"0.36775610","name_ar":"Seine-Maritime"},{"id":5061,"name":"Seine-Saint-Denis","country_id":75,"country_code":"FR","country_name":"France","state_code":"93","type":"metropolitan department","latitude":"48.90993180","longitude":"2.30573790","name_ar":"Seine-Saint-Denis"},{"id":5048,"name":"Somme","country_id":75,"country_code":"FR","country_name":"France","state_code":"80","type":"metropolitan department","latitude":"49.96859220","longitude":"1.73106960","name_ar":"Somme"},{"id":5049,"name":"Tarn","country_id":75,"country_code":"FR","country_name":"France","state_code":"81","type":"metropolitan department","latitude":"43.79149770","longitude":"1.67588930","name_ar":"Tarn"},{"id":5050,"name":"Tarn-et-Garonne","country_id":75,"country_code":"FR","country_name":"France","state_code":"82","type":"metropolitan department","latitude":"44.08089500","longitude":"1.08916570","name_ar":"Tarn-et-Garonne"},{"id":5058,"name":"Territoire de Belfort","country_id":75,"country_code":"FR","country_name":"France","state_code":"90","type":"metropolitan department","latitude":"47.62930720","longitude":"6.66962000","name_ar":"Territoire de Belfort"},{"id":5063,"name":"Val-d'Oise","country_id":75,"country_code":"FR","country_name":"France","state_code":"95","type":"metropolitan department","latitude":"49.07518180","longitude":"1.82169140","name_ar":"Val-d'Oise"},{"id":5062,"name":"Val-de-Marne","country_id":75,"country_code":"FR","country_name":"France","state_code":"94","type":"metropolitan department","latitude":"48.77470040","longitude":"2.32210390","name_ar":"Val-de-Marne"},{"id":5051,"name":"Var","country_id":75,"country_code":"FR","country_name":"France","state_code":"83","type":"metropolitan department","latitude":"43.39507300","longitude":"5.73424170","name_ar":"Var"},{"id":5052,"name":"Vaucluse","country_id":75,"country_code":"FR","country_name":"France","state_code":"84","type":"metropolitan department","latitude":"44.04475000","longitude":"4.64277180","name_ar":"Vaucluse"},{"id":5053,"name":"Vend\u00e9e","country_id":75,"country_code":"FR","country_name":"France","state_code":"85","type":"metropolitan department","latitude":"46.67541030","longitude":"-2.02983920","name_ar":"Vend\u00e9e"},{"id":5054,"name":"Vienne","country_id":75,"country_code":"FR","country_name":"France","state_code":"86","type":"metropolitan department","latitude":"45.52213140","longitude":"4.84531360","name_ar":"Vienne"},{"id":5056,"name":"Vosges","country_id":75,"country_code":"FR","country_name":"France","state_code":"88","type":"metropolitan department","latitude":"48.16301730","longitude":"5.73556000","name_ar":"Vosges"},{"id":4810,"name":"Wallis and Futuna","country_id":75,"country_code":"FR","country_name":"France","state_code":"WF","type":"overseas collectivity","latitude":"-14.29380000","longitude":"-178.11650000","name_ar":"Wallis and Futuna"},{"id":5057,"name":"Yonne","country_id":75,"country_code":"FR","country_name":"France","state_code":"89","type":"metropolitan department","latitude":"47.85476140","longitude":"3.03394040","name_ar":"Yonne"},{"id":5046,"name":"Yvelines","country_id":75,"country_code":"FR","country_name":"France","state_code":"78","type":"metropolitan department","latitude":"48.76153010","longitude":"1.27729490","name_ar":"Yvelines"}]