[{"id":900,"name":"Adjara","country_id":81,"country_code":"GE","country_name":"Georgia","state_code":"AJ","type":null,"latitude":"41.60056260","longitude":"42.06883830","name_ar":"Adjara"},{"id":901,"name":"Autonomous Republic of Abkhazia","country_id":81,"country_code":"GE","country_name":"Georgia","state_code":"AB","type":null,"latitude":"43.00155440","longitude":"41.02340700","name_ar":"Autonomous Republic of Abkhazia"},{"id":907,"name":"Guria","country_id":81,"country_code":"GE","country_name":"Georgia","state_code":"GU","type":null,"latitude":"41.94427360","longitude":"42.04580910","name_ar":"Guria"},{"id":905,"name":"Imereti","country_id":81,"country_code":"GE","country_name":"Georgia","state_code":"IM","type":null,"latitude":"42.23010800","longitude":"42.90086640","name_ar":"Imereti"},{"id":910,"name":"Kakheti","country_id":81,"country_code":"GE","country_name":"Georgia","state_code":"KA","type":null,"latitude":"41.64816020","longitude":"45.69055540","name_ar":"Kakheti"},{"id":897,"name":"Khelvachauri Municipality","country_id":81,"country_code":"GE","country_name":"Georgia","state_code":"29","type":null,"latitude":"41.58019260","longitude":"41.66107420","name_ar":"Khelvachauri Municipality"},{"id":904,"name":"Kvemo Kartli","country_id":81,"country_code":"GE","country_name":"Georgia","state_code":"KK","type":null,"latitude":"41.47918330","longitude":"44.65604510","name_ar":"Kvemo Kartli"},{"id":902,"name":"Mtskheta-Mtianeti","country_id":81,"country_code":"GE","country_name":"Georgia","state_code":"MM","type":null,"latitude":"42.16821850","longitude":"44.65060580","name_ar":"Mtskheta-Mtianeti"},{"id":909,"name":"Racha-Lechkhumi and Kvemo Svaneti","country_id":81,"country_code":"GE","country_name":"Georgia","state_code":"RL","type":null,"latitude":"42.67188730","longitude":"43.05628360","name_ar":"Racha-Lechkhumi and Kvemo Svaneti"},{"id":908,"name":"Samegrelo-Zemo Svaneti","country_id":81,"country_code":"GE","country_name":"Georgia","state_code":"SZ","type":null,"latitude":"42.73522470","longitude":"42.16893620","name_ar":"Samegrelo-Zemo Svaneti"},{"id":906,"name":"Samtskhe-Javakheti","country_id":81,"country_code":"GE","country_name":"Georgia","state_code":"SJ","type":null,"latitude":"41.54792960","longitude":"43.27764000","name_ar":"Samtskhe-Javakheti"},{"id":898,"name":"Senaki Municipality","country_id":81,"country_code":"GE","country_name":"Georgia","state_code":"50","type":null,"latitude":"42.26963600","longitude":"42.06568960","name_ar":"Senaki Municipality"},{"id":903,"name":"Shida Kartli","country_id":81,"country_code":"GE","country_name":"Georgia","state_code":"SK","type":null,"latitude":"42.07569440","longitude":"43.95404620","name_ar":"Shida Kartli"},{"id":899,"name":"Tbilisi","country_id":81,"country_code":"GE","country_name":"Georgia","state_code":"TB","type":null,"latitude":"41.71513770","longitude":"44.82709600","name_ar":"Tbilisi"}]