[{"id":2116,"name":"Achaea Regional Unit","country_id":85,"country_code":"GR","country_name":"Greece","state_code":"13","type":null,"latitude":"38.11587290","longitude":"21.95224910","name_ar":"Achaea Regional Unit"},{"id":2123,"name":"Aetolia-Acarnania Regional Unit","country_id":85,"country_code":"GR","country_name":"Greece","state_code":"01","type":null,"latitude":"38.70843860","longitude":"21.37989280","name_ar":"Aetolia-Acarnania Regional Unit"},{"id":2098,"name":"Arcadia Prefecture","country_id":85,"country_code":"GR","country_name":"Greece","state_code":"12","type":null,"latitude":"37.55578250","longitude":"22.33377690","name_ar":"Arcadia Prefecture"},{"id":2105,"name":"Argolis Regional Unit","country_id":85,"country_code":"GR","country_name":"Greece","state_code":"11","type":null,"latitude":null,"longitude":null,"name_ar":"Argolis Regional Unit"},{"id":2122,"name":"Attica Region","country_id":85,"country_code":"GR","country_name":"Greece","state_code":"I","type":null,"latitude":"38.04575680","longitude":"23.85847370","name_ar":"Attica Region"},{"id":2126,"name":"Boeotia Regional Unit","country_id":85,"country_code":"GR","country_name":"Greece","state_code":"03","type":null,"latitude":"38.36636640","longitude":"23.09650640","name_ar":"Boeotia Regional Unit"},{"id":2128,"name":"Central Greece Region","country_id":85,"country_code":"GR","country_name":"Greece","state_code":"H","type":null,"latitude":"38.60439840","longitude":"22.71521310","name_ar":"Central Greece Region"},{"id":2125,"name":"Central Macedonia","country_id":85,"country_code":"GR","country_name":"Greece","state_code":"B","type":null,"latitude":"40.62117300","longitude":"23.19180210","name_ar":"Central Macedonia"},{"id":2115,"name":"Chania Regional Unit","country_id":85,"country_code":"GR","country_name":"Greece","state_code":"94","type":null,"latitude":"35.51382980","longitude":"24.01803670","name_ar":"Chania Regional Unit"},{"id":2124,"name":"Corfu Prefecture","country_id":85,"country_code":"GR","country_name":"Greece","state_code":"22","type":null,"latitude":"39.62498380","longitude":"19.92234610","name_ar":"Corfu Prefecture"},{"id":2129,"name":"Corinthia Regional Unit","country_id":85,"country_code":"GR","country_name":"Greece","state_code":"15","type":null,"latitude":null,"longitude":null,"name_ar":"Corinthia Regional Unit"},{"id":2109,"name":"Crete Region","country_id":85,"country_code":"GR","country_name":"Greece","state_code":"M","type":null,"latitude":"35.24011700","longitude":"24.80926910","name_ar":"Crete Region"},{"id":2130,"name":"Drama Regional Unit","country_id":85,"country_code":"GR","country_name":"Greece","state_code":"52","type":null,"latitude":"41.23400230","longitude":"24.23904980","name_ar":"Drama Regional Unit"},{"id":2120,"name":"East Attica Regional Unit","country_id":85,"country_code":"GR","country_name":"Greece","state_code":"A2","type":null,"latitude":"38.20540930","longitude":"23.85847370","name_ar":"East Attica Regional Unit"},{"id":2117,"name":"East Macedonia and Thrace","country_id":85,"country_code":"GR","country_name":"Greece","state_code":"A","type":null,"latitude":"41.12951260","longitude":"24.88771910","name_ar":"East Macedonia and Thrace"},{"id":2110,"name":"Epirus Region","country_id":85,"country_code":"GR","country_name":"Greece","state_code":"D","type":null,"latitude":"39.57064130","longitude":"20.76428430","name_ar":"Epirus Region"},{"id":2101,"name":"Euboea","country_id":85,"country_code":"GR","country_name":"Greece","state_code":"04","type":null,"latitude":"38.52360360","longitude":"23.85847370","name_ar":"Euboea"},{"id":2102,"name":"Grevena Prefecture","country_id":85,"country_code":"GR","country_name":"Greece","state_code":"51","type":null,"latitude":"40.08376260","longitude":"21.42732990","name_ar":"Grevena Prefecture"},{"id":2099,"name":"Imathia Regional Unit","country_id":85,"country_code":"GR","country_name":"Greece","state_code":"53","type":null,"latitude":"40.60600670","longitude":"22.14302150","name_ar":"Imathia Regional Unit"},{"id":2113,"name":"Ioannina Regional Unit","country_id":85,"country_code":"GR","country_name":"Greece","state_code":"33","type":null,"latitude":"39.66502880","longitude":"20.85374660","name_ar":"Ioannina Regional Unit"},{"id":2131,"name":"Ionian Islands Region","country_id":85,"country_code":"GR","country_name":"Greece","state_code":"F","type":null,"latitude":"37.96948980","longitude":"21.38023720","name_ar":"Ionian Islands Region"},{"id":2095,"name":"Karditsa Regional Unit","country_id":85,"country_code":"GR","country_name":"Greece","state_code":"41","type":null,"latitude":"39.36402580","longitude":"21.92140490","name_ar":"Karditsa Regional Unit"},{"id":2100,"name":"Kastoria Regional Unit","country_id":85,"country_code":"GR","country_name":"Greece","state_code":"56","type":null,"latitude":"40.51926910","longitude":"21.26871710","name_ar":"Kastoria Regional Unit"},{"id":2127,"name":"Kefalonia Prefecture","country_id":85,"country_code":"GR","country_name":"Greece","state_code":"23","type":null,"latitude":"38.17536750","longitude":"20.56921790","name_ar":"Kefalonia Prefecture"},{"id":2111,"name":"Kilkis Regional Unit","country_id":85,"country_code":"GR","country_name":"Greece","state_code":"57","type":null,"latitude":"40.99370710","longitude":"22.87536740","name_ar":"Kilkis Regional Unit"},{"id":2112,"name":"Kozani Prefecture","country_id":85,"country_code":"GR","country_name":"Greece","state_code":"58","type":null,"latitude":"40.30055860","longitude":"21.78877370","name_ar":"Kozani Prefecture"},{"id":2106,"name":"Laconia","country_id":85,"country_code":"GR","country_name":"Greece","state_code":"16","type":null,"latitude":"43.52785460","longitude":"-71.47035090","name_ar":"Laconia"},{"id":2132,"name":"Larissa Prefecture","country_id":85,"country_code":"GR","country_name":"Greece","state_code":"42","type":null,"latitude":"39.63902240","longitude":"22.41912540","name_ar":"Larissa Prefecture"},{"id":2104,"name":"Lefkada Regional Unit","country_id":85,"country_code":"GR","country_name":"Greece","state_code":"24","type":null,"latitude":"38.83336630","longitude":"20.70691080","name_ar":"Lefkada Regional Unit"},{"id":2107,"name":"Pella Regional Unit","country_id":85,"country_code":"GR","country_name":"Greece","state_code":"59","type":null,"latitude":"40.91480390","longitude":"22.14302150","name_ar":"Pella Regional Unit"},{"id":2119,"name":"Peloponnese Region","country_id":85,"country_code":"GR","country_name":"Greece","state_code":"J","type":null,"latitude":"37.50794720","longitude":"22.37349000","name_ar":"Peloponnese Region"},{"id":2114,"name":"Phthiotis Prefecture","country_id":85,"country_code":"GR","country_name":"Greece","state_code":"06","type":null,"latitude":"38.99978500","longitude":"22.33377690","name_ar":"Phthiotis Prefecture"},{"id":2103,"name":"Preveza Prefecture","country_id":85,"country_code":"GR","country_name":"Greece","state_code":"34","type":null,"latitude":"38.95926490","longitude":"20.75171550","name_ar":"Preveza Prefecture"},{"id":2121,"name":"Serres Prefecture","country_id":85,"country_code":"GR","country_name":"Greece","state_code":"62","type":null,"latitude":"41.08638540","longitude":"23.54838190","name_ar":"Serres Prefecture"},{"id":2118,"name":"South Aegean","country_id":85,"country_code":"GR","country_name":"Greece","state_code":"L","type":null,"latitude":"37.08553020","longitude":"25.14892150","name_ar":"South Aegean"},{"id":2097,"name":"Thessaloniki Regional Unit","country_id":85,"country_code":"GR","country_name":"Greece","state_code":"54","type":null,"latitude":"40.64006290","longitude":"22.94441910","name_ar":"Thessaloniki Regional Unit"},{"id":2096,"name":"West Greece Region","country_id":85,"country_code":"GR","country_name":"Greece","state_code":"G","type":null,"latitude":"38.51154960","longitude":"21.57067860","name_ar":"West Greece Region"},{"id":2108,"name":"West Macedonia Region","country_id":85,"country_code":"GR","country_name":"Greece","state_code":"C","type":null,"latitude":"40.30040580","longitude":"21.79035590","name_ar":"West Macedonia Region"}]