[{"id":734,"name":"Bjelovar-Bilogora","country_id":55,"country_code":"HR","country_name":"Croatia","state_code":"07","type":"county","latitude":"45.89879720","longitude":"16.84230930","name_ar":"Bjelovar-Bilogora"},{"id":737,"name":"Brod-Posavina","country_id":55,"country_code":"HR","country_name":"Croatia","state_code":"12","type":"county","latitude":"45.26379510","longitude":"17.32645620","name_ar":"Brod-Posavina"},{"id":728,"name":"Dubrovnik-Neretva","country_id":55,"country_code":"HR","country_name":"Croatia","state_code":"19","type":"county","latitude":"43.07665880","longitude":"17.52684710","name_ar":"Dubrovnik-Neretva"},{"id":743,"name":"Istria","country_id":55,"country_code":"HR","country_name":"Croatia","state_code":"18","type":"county","latitude":"45.12864550","longitude":"13.90154200","name_ar":"Istria"},{"id":5069,"name":"Karlovac","country_id":55,"country_code":"HR","country_name":"Croatia","state_code":"04","type":"county","latitude":"45.26133520","longitude":"15.52542016","name_ar":"Karlovac"},{"id":742,"name":"Koprivnica-Kri\u017eevci","country_id":55,"country_code":"HR","country_name":"Croatia","state_code":"06","type":"county","latitude":"46.15689190","longitude":"16.83908260","name_ar":"Koprivnica-Kri\u017eevci"},{"id":729,"name":"Krapina-Zagorje","country_id":55,"country_code":"HR","country_name":"Croatia","state_code":"02","type":"county","latitude":"46.10133930","longitude":"15.88096930","name_ar":"Krapina-Zagorje"},{"id":731,"name":"Lika-Senj","country_id":55,"country_code":"HR","country_name":"Croatia","state_code":"09","type":"county","latitude":"44.61922180","longitude":"15.47016080","name_ar":"Lika-Senj"},{"id":726,"name":"Me\u0111imurje","country_id":55,"country_code":"HR","country_name":"Croatia","state_code":"20","type":"county","latitude":"46.37666440","longitude":"16.42132980","name_ar":"Me\u0111imurje"},{"id":740,"name":"Osijek-Baranja","country_id":55,"country_code":"HR","country_name":"Croatia","state_code":"14","type":"county","latitude":"45.55764280","longitude":"18.39421410","name_ar":"Osijek-Baranja"},{"id":724,"name":"Po\u017eega-Slavonia","country_id":55,"country_code":"HR","country_name":"Croatia","state_code":"11","type":"county","latitude":"45.34178680","longitude":"17.81143590","name_ar":"Po\u017eega-Slavonia"},{"id":735,"name":"Primorje-Gorski Kotar","country_id":55,"country_code":"HR","country_name":"Croatia","state_code":"08","type":"county","latitude":"45.31739960","longitude":"14.81674660","name_ar":"Primorje-Gorski Kotar"},{"id":730,"name":"\u0160ibenik-Knin","country_id":55,"country_code":"HR","country_name":"Croatia","state_code":"15","type":"county","latitude":"43.92814850","longitude":"16.10376940","name_ar":"\u0160ibenik-Knin"},{"id":733,"name":"Sisak-Moslavina","country_id":55,"country_code":"HR","country_name":"Croatia","state_code":"03","type":"county","latitude":"45.38379260","longitude":"16.53809940","name_ar":"Sisak-Moslavina"},{"id":725,"name":"Split-Dalmatia","country_id":55,"country_code":"HR","country_name":"Croatia","state_code":"17","type":"county","latitude":"43.52403280","longitude":"16.81783770","name_ar":"Split-Dalmatia"},{"id":739,"name":"Vara\u017edin","country_id":55,"country_code":"HR","country_name":"Croatia","state_code":"05","type":"county","latitude":"46.23174730","longitude":"16.33605590","name_ar":"Vara\u017edin"},{"id":732,"name":"Virovitica-Podravina","country_id":55,"country_code":"HR","country_name":"Croatia","state_code":"10","type":"county","latitude":"45.65579850","longitude":"17.79324720","name_ar":"Virovitica-Podravina"},{"id":741,"name":"Vukovar-Syrmia","country_id":55,"country_code":"HR","country_name":"Croatia","state_code":"16","type":"county","latitude":"45.17735520","longitude":"18.80535270","name_ar":"Vukovar-Syrmia"},{"id":727,"name":"Zadar","country_id":55,"country_code":"HR","country_name":"Croatia","state_code":"13","type":"county","latitude":"44.14693900","longitude":"15.61649430","name_ar":"Zadar"},{"id":736,"name":"Zagreb","country_id":55,"country_code":"HR","country_name":"Croatia","state_code":"01","type":"county","latitude":"45.87066120","longitude":"16.39549100","name_ar":"Zagreb"},{"id":738,"name":"Zagreb","country_id":55,"country_code":"HR","country_name":"Croatia","state_code":"21","type":"city","latitude":"45.81501080","longitude":"15.98191890","name_ar":"Zagreb"}]