[{"id":963,"name":"Ajloun","country_id":111,"country_code":"JO","country_name":"Jordan","state_code":"AJ","type":null,"latitude":"32.33255840","longitude":"35.75168440","name_ar":"Ajloun"},{"id":965,"name":"Amman","country_id":111,"country_code":"JO","country_name":"Jordan","state_code":"AM","type":null,"latitude":"31.94536330","longitude":"35.92838950","name_ar":"Amman"},{"id":959,"name":"Aqaba","country_id":111,"country_code":"JO","country_name":"Jordan","state_code":"AQ","type":null,"latitude":"29.53208600","longitude":"35.00628210","name_ar":"Aqaba"},{"id":961,"name":"Balqa","country_id":111,"country_code":"JO","country_name":"Jordan","state_code":"BA","type":null,"latitude":"32.03668060","longitude":"35.72884800","name_ar":"Balqa"},{"id":960,"name":"Irbid","country_id":111,"country_code":"JO","country_name":"Jordan","state_code":"IR","type":null,"latitude":"32.55696360","longitude":"35.84789650","name_ar":"Irbid"},{"id":966,"name":"Jerash","country_id":111,"country_code":"JO","country_name":"Jordan","state_code":"JA","type":null,"latitude":"32.27472370","longitude":"35.89609540","name_ar":"Jerash"},{"id":956,"name":"Karak","country_id":111,"country_code":"JO","country_name":"Jordan","state_code":"KA","type":null,"latitude":"31.18535270","longitude":"35.70476820","name_ar":"Karak"},{"id":964,"name":"Ma'an","country_id":111,"country_code":"JO","country_name":"Jordan","state_code":"MN","type":null,"latitude":"30.19267890","longitude":"35.72493190","name_ar":"Ma'an"},{"id":958,"name":"Madaba","country_id":111,"country_code":"JO","country_name":"Jordan","state_code":"MD","type":null,"latitude":"31.71960970","longitude":"35.79327540","name_ar":"Madaba"},{"id":962,"name":"Mafraq","country_id":111,"country_code":"JO","country_name":"Jordan","state_code":"MA","type":null,"latitude":"32.34169230","longitude":"36.20201750","name_ar":"Mafraq"},{"id":957,"name":"Tafilah","country_id":111,"country_code":"JO","country_name":"Jordan","state_code":"AT","type":null,"latitude":"30.83380630","longitude":"35.61605130","name_ar":"Tafilah"},{"id":967,"name":"Zarqa","country_id":111,"country_code":"JO","country_name":"Jordan","state_code":"AZ","type":null,"latitude":"32.06085050","longitude":"36.09421210","name_ar":"Zarqa"}]