[{"id":145,"name":"Akmola Region","country_id":112,"country_code":"KZ","country_name":"Kazakhstan","state_code":"AKM","type":null,"latitude":"51.91653200","longitude":"69.41104940","name_ar":"Akmola Region"},{"id":151,"name":"Aktobe Region","country_id":112,"country_code":"KZ","country_name":"Kazakhstan","state_code":"AKT","type":null,"latitude":"48.77970780","longitude":"57.99743780","name_ar":"Aktobe Region"},{"id":152,"name":"Almaty","country_id":112,"country_code":"KZ","country_name":"Kazakhstan","state_code":"ALA","type":null,"latitude":"43.22201460","longitude":"76.85124850","name_ar":"Almaty"},{"id":143,"name":"Almaty Region","country_id":112,"country_code":"KZ","country_name":"Kazakhstan","state_code":"ALM","type":null,"latitude":"45.01192270","longitude":"78.42293920","name_ar":"Almaty Region"},{"id":153,"name":"Atyrau Region","country_id":112,"country_code":"KZ","country_name":"Kazakhstan","state_code":"ATY","type":null,"latitude":"47.10761880","longitude":"51.91413300","name_ar":"Atyrau Region"},{"id":155,"name":"Baikonur","country_id":112,"country_code":"KZ","country_name":"Kazakhstan","state_code":"BAY","type":null,"latitude":"45.96458510","longitude":"63.30524280","name_ar":"Baikonur"},{"id":154,"name":"East Kazakhstan Region","country_id":112,"country_code":"KZ","country_name":"Kazakhstan","state_code":"VOS","type":null,"latitude":"48.70626870","longitude":"80.79225340","name_ar":"East Kazakhstan Region"},{"id":147,"name":"Jambyl Region","country_id":112,"country_code":"KZ","country_name":"Kazakhstan","state_code":"ZHA","type":null,"latitude":"44.22203080","longitude":"72.36579670","name_ar":"Jambyl Region"},{"id":150,"name":"Karaganda Region","country_id":112,"country_code":"KZ","country_name":"Kazakhstan","state_code":"KAR","type":null,"latitude":"47.90221820","longitude":"71.77068070","name_ar":"Karaganda Region"},{"id":157,"name":"Kostanay Region","country_id":112,"country_code":"KZ","country_name":"Kazakhstan","state_code":"KUS","type":null,"latitude":"51.50770960","longitude":"64.04790730","name_ar":"Kostanay Region"},{"id":142,"name":"Kyzylorda Region","country_id":112,"country_code":"KZ","country_name":"Kazakhstan","state_code":"KZY","type":null,"latitude":"44.69226130","longitude":"62.65718850","name_ar":"Kyzylorda Region"},{"id":141,"name":"Mangystau Region","country_id":112,"country_code":"KZ","country_name":"Kazakhstan","state_code":"MAN","type":null,"latitude":"44.59080200","longitude":"53.84995080","name_ar":"Mangystau Region"},{"id":144,"name":"North Kazakhstan Region","country_id":112,"country_code":"KZ","country_name":"Kazakhstan","state_code":"SEV","type":null,"latitude":"54.16220660","longitude":"69.93870710","name_ar":"North Kazakhstan Region"},{"id":156,"name":"Nur-Sultan","country_id":112,"country_code":"KZ","country_name":"Kazakhstan","state_code":"AST","type":null,"latitude":"51.16052270","longitude":"71.47035580","name_ar":"Nur-Sultan"},{"id":146,"name":"Pavlodar Region","country_id":112,"country_code":"KZ","country_name":"Kazakhstan","state_code":"PAV","type":null,"latitude":"52.28784440","longitude":"76.97334530","name_ar":"Pavlodar Region"},{"id":149,"name":"Turkestan Region","country_id":112,"country_code":"KZ","country_name":"Kazakhstan","state_code":"YUZ","type":null,"latitude":"43.36669580","longitude":"68.40944050","name_ar":"Turkestan Region"},{"id":148,"name":"West Kazakhstan Province","country_id":112,"country_code":"KZ","country_name":"Kazakhstan","state_code":"ZAP","type":null,"latitude":"49.56797270","longitude":"50.80666160","name_ar":"West Kazakhstan Province"}]