[{"id":3030,"name":"Berea District","country_id":122,"country_code":"LS","country_name":"Lesotho","state_code":"D","type":null,"latitude":"41.36616140","longitude":"-81.85430260","name_ar":"Berea District"},{"id":3029,"name":"Butha-Buthe District","country_id":122,"country_code":"LS","country_name":"Lesotho","state_code":"B","type":null,"latitude":"-28.76537540","longitude":"28.24681480","name_ar":"Butha-Buthe District"},{"id":3026,"name":"Leribe District","country_id":122,"country_code":"LS","country_name":"Lesotho","state_code":"C","type":null,"latitude":"-28.86380650","longitude":"28.04788260","name_ar":"Leribe District"},{"id":3022,"name":"Mafeteng District","country_id":122,"country_code":"LS","country_name":"Lesotho","state_code":"E","type":null,"latitude":"-29.80410080","longitude":"27.50261740","name_ar":"Mafeteng District"},{"id":3028,"name":"Maseru District","country_id":122,"country_code":"LS","country_name":"Lesotho","state_code":"A","type":null,"latitude":"-29.51656500","longitude":"27.83114280","name_ar":"Maseru District"},{"id":3023,"name":"Mohale's Hoek District","country_id":122,"country_code":"LS","country_name":"Lesotho","state_code":"F","type":null,"latitude":"-30.14259170","longitude":"27.46738450","name_ar":"Mohale's Hoek District"},{"id":3024,"name":"Mokhotlong District","country_id":122,"country_code":"LS","country_name":"Lesotho","state_code":"J","type":null,"latitude":"-29.25731930","longitude":"28.95286450","name_ar":"Mokhotlong District"},{"id":3025,"name":"Qacha's Nek District","country_id":122,"country_code":"LS","country_name":"Lesotho","state_code":"H","type":null,"latitude":"-30.11145650","longitude":"28.67897900","name_ar":"Qacha's Nek District"},{"id":3027,"name":"Quthing District","country_id":122,"country_code":"LS","country_name":"Lesotho","state_code":"G","type":null,"latitude":"-30.40156870","longitude":"27.70801330","name_ar":"Quthing District"},{"id":3031,"name":"Thaba-Tseka District","country_id":122,"country_code":"LS","country_name":"Lesotho","state_code":"K","type":null,"latitude":"-29.52389750","longitude":"28.60897520","name_ar":"Thaba-Tseka District"}]