[{"id":703,"name":"Aerodrom Municipality","country_id":129,"country_code":"MK","country_name":"North Macedonia","state_code":"01","type":null,"latitude":"41.94643630","longitude":"21.49317130","name_ar":"Aerodrom Municipality"},{"id":656,"name":"Ara\u010dinovo Municipality","country_id":129,"country_code":"MK","country_name":"North Macedonia","state_code":"02","type":null,"latitude":"42.02473810","longitude":"21.57664070","name_ar":"Ara\u010dinovo Municipality"},{"id":716,"name":"Berovo Municipality","country_id":129,"country_code":"MK","country_name":"North Macedonia","state_code":"03","type":null,"latitude":"41.66619290","longitude":"22.76288300","name_ar":"Berovo Municipality"},{"id":679,"name":"Bitola Municipality","country_id":129,"country_code":"MK","country_name":"North Macedonia","state_code":"04","type":null,"latitude":"41.03633020","longitude":"21.33219740","name_ar":"Bitola Municipality"},{"id":649,"name":"Bogdanci Municipality","country_id":129,"country_code":"MK","country_name":"North Macedonia","state_code":"05","type":null,"latitude":"41.18696160","longitude":"22.59602680","name_ar":"Bogdanci Municipality"},{"id":721,"name":"Bogovinje Municipality","country_id":129,"country_code":"MK","country_name":"North Macedonia","state_code":"06","type":null,"latitude":"41.92363710","longitude":"20.91638870","name_ar":"Bogovinje Municipality"},{"id":652,"name":"Bosilovo Municipality","country_id":129,"country_code":"MK","country_name":"North Macedonia","state_code":"07","type":null,"latitude":"41.49048640","longitude":"22.78671740","name_ar":"Bosilovo Municipality"},{"id":660,"name":"Brvenica Municipality","country_id":129,"country_code":"MK","country_name":"North Macedonia","state_code":"08","type":null,"latitude":"41.96814820","longitude":"20.98195860","name_ar":"Brvenica Municipality"},{"id":694,"name":"Butel Municipality","country_id":129,"country_code":"MK","country_name":"North Macedonia","state_code":"09","type":null,"latitude":"42.08950680","longitude":"21.46336100","name_ar":"Butel Municipality"},{"id":704,"name":"\u010cair Municipality","country_id":129,"country_code":"MK","country_name":"North Macedonia","state_code":"79","type":null,"latitude":"41.99303550","longitude":"21.43653180","name_ar":"\u010cair Municipality"},{"id":676,"name":"\u010ca\u0161ka Municipality","country_id":129,"country_code":"MK","country_name":"North Macedonia","state_code":"80","type":null,"latitude":"41.64743800","longitude":"21.69141150","name_ar":"\u010ca\u0161ka Municipality"},{"id":702,"name":"Centar Municipality","country_id":129,"country_code":"MK","country_name":"North Macedonia","state_code":"77","type":null,"latitude":"41.96989340","longitude":"21.42162670","name_ar":"Centar Municipality"},{"id":720,"name":"Centar \u017dupa Municipality","country_id":129,"country_code":"MK","country_name":"North Macedonia","state_code":"78","type":null,"latitude":"41.46522590","longitude":"20.59305480","name_ar":"Centar \u017dupa Municipality"},{"id":644,"name":"\u010ce\u0161inovo-Oble\u0161evo Municipality","country_id":129,"country_code":"MK","country_name":"North Macedonia","state_code":"81","type":null,"latitude":"41.86393160","longitude":"22.26224600","name_ar":"\u010ce\u0161inovo-Oble\u0161evo Municipality"},{"id":715,"name":"\u010cu\u010der-Sandevo Municipality","country_id":129,"country_code":"MK","country_name":"North Macedonia","state_code":"82","type":null,"latitude":"42.14839460","longitude":"21.40374070","name_ar":"\u010cu\u010der-Sandevo Municipality"},{"id":645,"name":"Debarca Municipality","country_id":129,"country_code":"MK","country_name":"North Macedonia","state_code":"22","type":null,"latitude":"41.35840770","longitude":"20.85529190","name_ar":"Debarca Municipality"},{"id":695,"name":"Del\u010devo Municipality","country_id":129,"country_code":"MK","country_name":"North Macedonia","state_code":"23","type":null,"latitude":"41.96843870","longitude":"22.76288300","name_ar":"Del\u010devo Municipality"},{"id":687,"name":"Demir Hisar Municipality","country_id":129,"country_code":"MK","country_name":"North Macedonia","state_code":"25","type":null,"latitude":"41.22708300","longitude":"21.14142260","name_ar":"Demir Hisar Municipality"},{"id":655,"name":"Demir Kapija Municipality","country_id":129,"country_code":"MK","country_name":"North Macedonia","state_code":"24","type":null,"latitude":"41.37955380","longitude":"22.21455710","name_ar":"Demir Kapija Municipality"},{"id":697,"name":"Dojran Municipality","country_id":129,"country_code":"MK","country_name":"North Macedonia","state_code":"26","type":null,"latitude":"41.24366720","longitude":"22.69137640","name_ar":"Dojran Municipality"},{"id":675,"name":"Dolneni Municipality","country_id":129,"country_code":"MK","country_name":"North Macedonia","state_code":"27","type":null,"latitude":"41.46409350","longitude":"21.40374070","name_ar":"Dolneni Municipality"},{"id":657,"name":"Drugovo Municipality","country_id":129,"country_code":"MK","country_name":"North Macedonia","state_code":"28","type":null,"latitude":"41.44081530","longitude":"20.92682010","name_ar":"Drugovo Municipality"},{"id":707,"name":"Gazi Baba Municipality","country_id":129,"country_code":"MK","country_name":"North Macedonia","state_code":"17","type":null,"latitude":"42.01629610","longitude":"21.49913340","name_ar":"Gazi Baba Municipality"},{"id":648,"name":"Gevgelija Municipality","country_id":129,"country_code":"MK","country_name":"North Macedonia","state_code":"18","type":null,"latitude":"41.21186060","longitude":"22.38146240","name_ar":"Gevgelija Municipality"},{"id":722,"name":"Gjor\u010de Petrov Municipality","country_id":129,"country_code":"MK","country_name":"North Macedonia","state_code":"29","type":null,"latitude":"42.06063740","longitude":"21.32027360","name_ar":"Gjor\u010de Petrov Municipality"},{"id":693,"name":"Gostivar Municipality","country_id":129,"country_code":"MK","country_name":"North Macedonia","state_code":"19","type":null,"latitude":"41.80255410","longitude":"20.90893780","name_ar":"Gostivar Municipality"},{"id":708,"name":"Gradsko Municipality","country_id":129,"country_code":"MK","country_name":"North Macedonia","state_code":"20","type":null,"latitude":"41.59916080","longitude":"21.88070640","name_ar":"Gradsko Municipality"},{"id":684,"name":"Greater Skopje","country_id":129,"country_code":"MK","country_name":"North Macedonia","state_code":"85","type":null,"latitude":"41.99812940","longitude":"21.42543550","name_ar":"Greater Skopje"},{"id":690,"name":"Ilinden Municipality","country_id":129,"country_code":"MK","country_name":"North Macedonia","state_code":"34","type":null,"latitude":"41.99574430","longitude":"21.56769750","name_ar":"Ilinden Municipality"},{"id":678,"name":"Jegunovce Municipality","country_id":129,"country_code":"MK","country_name":"North Macedonia","state_code":"35","type":null,"latitude":"42.07407200","longitude":"21.12204780","name_ar":"Jegunovce Municipality"},{"id":674,"name":"Karbinci","country_id":129,"country_code":"MK","country_name":"North Macedonia","state_code":"37","type":null,"latitude":"41.81801590","longitude":"22.23247580","name_ar":"Karbinci"},{"id":681,"name":"Karpo\u0161 Municipality","country_id":129,"country_code":"MK","country_name":"North Macedonia","state_code":"38","type":null,"latitude":"41.97096610","longitude":"21.39181680","name_ar":"Karpo\u0161 Municipality"},{"id":713,"name":"Kavadarci Municipality","country_id":129,"country_code":"MK","country_name":"North Macedonia","state_code":"36","type":null,"latitude":"41.28900680","longitude":"21.99994350","name_ar":"Kavadarci Municipality"},{"id":688,"name":"Ki\u010devo Municipality","country_id":129,"country_code":"MK","country_name":"North Macedonia","state_code":"40","type":null,"latitude":"41.51291120","longitude":"20.95250650","name_ar":"Ki\u010devo Municipality"},{"id":686,"name":"Kisela Voda Municipality","country_id":129,"country_code":"MK","country_name":"North Macedonia","state_code":"39","type":null,"latitude":"41.92748000","longitude":"21.49317130","name_ar":"Kisela Voda Municipality"},{"id":723,"name":"Ko\u010dani Municipality","country_id":129,"country_code":"MK","country_name":"North Macedonia","state_code":"42","type":null,"latitude":"41.98583740","longitude":"22.40530460","name_ar":"Ko\u010dani Municipality"},{"id":665,"name":"Kon\u010de Municipality","country_id":129,"country_code":"MK","country_name":"North Macedonia","state_code":"41","type":null,"latitude":"41.51710110","longitude":"22.38146240","name_ar":"Kon\u010de Municipality"},{"id":641,"name":"Kratovo Municipality","country_id":129,"country_code":"MK","country_name":"North Macedonia","state_code":"43","type":null,"latitude":"42.05371410","longitude":"22.07148350","name_ar":"Kratovo Municipality"},{"id":677,"name":"Kriva Palanka Municipality","country_id":129,"country_code":"MK","country_name":"North Macedonia","state_code":"44","type":null,"latitude":"42.20584540","longitude":"22.33079650","name_ar":"Kriva Palanka Municipality"},{"id":647,"name":"Krivoga\u0161tani Municipality","country_id":129,"country_code":"MK","country_name":"North Macedonia","state_code":"45","type":null,"latitude":"41.30823060","longitude":"21.36796890","name_ar":"Krivoga\u0161tani Municipality"},{"id":714,"name":"Kru\u0161evo Municipality","country_id":129,"country_code":"MK","country_name":"North Macedonia","state_code":"46","type":null,"latitude":"41.37693310","longitude":"21.26065540","name_ar":"Kru\u0161evo Municipality"},{"id":683,"name":"Kumanovo Municipality","country_id":129,"country_code":"MK","country_name":"North Macedonia","state_code":"47","type":null,"latitude":"42.07326130","longitude":"21.78531430","name_ar":"Kumanovo Municipality"},{"id":659,"name":"Lipkovo Municipality","country_id":129,"country_code":"MK","country_name":"North Macedonia","state_code":"48","type":null,"latitude":"42.20066260","longitude":"21.61837550","name_ar":"Lipkovo Municipality"},{"id":705,"name":"Lozovo Municipality","country_id":129,"country_code":"MK","country_name":"North Macedonia","state_code":"49","type":null,"latitude":"41.78181390","longitude":"21.90008270","name_ar":"Lozovo Municipality"},{"id":701,"name":"Makedonska Kamenica Municipality","country_id":129,"country_code":"MK","country_name":"North Macedonia","state_code":"51","type":null,"latitude":"42.06946040","longitude":"22.54834900","name_ar":"Makedonska Kamenica Municipality"},{"id":692,"name":"Makedonski Brod Municipality","country_id":129,"country_code":"MK","country_name":"North Macedonia","state_code":"52","type":null,"latitude":"41.51330880","longitude":"21.21743290","name_ar":"Makedonski Brod Municipality"},{"id":669,"name":"Mavrovo and Rostu\u0161a Municipality","country_id":129,"country_code":"MK","country_name":"North Macedonia","state_code":"50","type":null,"latitude":"41.60924270","longitude":"20.60124880","name_ar":"Mavrovo and Rostu\u0161a Municipality"},{"id":653,"name":"Mogila Municipality","country_id":129,"country_code":"MK","country_name":"North Macedonia","state_code":"53","type":null,"latitude":"41.14796450","longitude":"21.45143690","name_ar":"Mogila Municipality"},{"id":664,"name":"Negotino Municipality","country_id":129,"country_code":"MK","country_name":"North Macedonia","state_code":"54","type":null,"latitude":"41.49899850","longitude":"22.09532970","name_ar":"Negotino Municipality"},{"id":696,"name":"Novaci Municipality","country_id":129,"country_code":"MK","country_name":"North Macedonia","state_code":"55","type":null,"latitude":"41.04426610","longitude":"21.45888940","name_ar":"Novaci Municipality"},{"id":718,"name":"Novo Selo Municipality","country_id":129,"country_code":"MK","country_name":"North Macedonia","state_code":"56","type":null,"latitude":"41.43255800","longitude":"22.88204890","name_ar":"Novo Selo Municipality"},{"id":699,"name":"Ohrid Municipality","country_id":129,"country_code":"MK","country_name":"North Macedonia","state_code":"58","type":null,"latitude":"41.06820880","longitude":"20.75992660","name_ar":"Ohrid Municipality"},{"id":682,"name":"Oslomej Municipality","country_id":129,"country_code":"MK","country_name":"North Macedonia","state_code":"57","type":null,"latitude":"41.57583910","longitude":"21.02219600","name_ar":"Oslomej Municipality"},{"id":685,"name":"Peh\u010devo Municipality","country_id":129,"country_code":"MK","country_name":"North Macedonia","state_code":"60","type":null,"latitude":"41.77371320","longitude":"22.88204890","name_ar":"Peh\u010devo Municipality"},{"id":698,"name":"Petrovec Municipality","country_id":129,"country_code":"MK","country_name":"North Macedonia","state_code":"59","type":null,"latitude":"41.90298970","longitude":"21.68992100","name_ar":"Petrovec Municipality"},{"id":670,"name":"Plasnica Municipality","country_id":129,"country_code":"MK","country_name":"North Macedonia","state_code":"61","type":null,"latitude":"41.45463490","longitude":"21.10565390","name_ar":"Plasnica Municipality"},{"id":666,"name":"Prilep Municipality","country_id":129,"country_code":"MK","country_name":"North Macedonia","state_code":"62","type":null,"latitude":"41.26931420","longitude":"21.71376940","name_ar":"Prilep Municipality"},{"id":646,"name":"Probi\u0161tip Municipality","country_id":129,"country_code":"MK","country_name":"North Macedonia","state_code":"63","type":null,"latitude":"41.95891460","longitude":"22.16686700","name_ar":"Probi\u0161tip Municipality"},{"id":709,"name":"Radovi\u0161 Municipality","country_id":129,"country_code":"MK","country_name":"North Macedonia","state_code":"64","type":null,"latitude":"41.64955310","longitude":"22.47682870","name_ar":"Radovi\u0161 Municipality"},{"id":717,"name":"Rankovce Municipality","country_id":129,"country_code":"MK","country_name":"North Macedonia","state_code":"65","type":null,"latitude":"42.18081410","longitude":"22.09532970","name_ar":"Rankovce Municipality"},{"id":712,"name":"Resen Municipality","country_id":129,"country_code":"MK","country_name":"North Macedonia","state_code":"66","type":null,"latitude":"40.93680930","longitude":"21.04604070","name_ar":"Resen Municipality"},{"id":691,"name":"Rosoman Municipality","country_id":129,"country_code":"MK","country_name":"North Macedonia","state_code":"67","type":null,"latitude":"41.48480060","longitude":"21.88070640","name_ar":"Rosoman Municipality"},{"id":667,"name":"Saraj Municipality","country_id":129,"country_code":"MK","country_name":"North Macedonia","state_code":"68","type":null,"latitude":"41.98694960","longitude":"21.26065540","name_ar":"Saraj Municipality"},{"id":719,"name":"Sopi\u0161te Municipality","country_id":129,"country_code":"MK","country_name":"North Macedonia","state_code":"70","type":null,"latitude":"41.86384920","longitude":"21.30834990","name_ar":"Sopi\u0161te Municipality"},{"id":643,"name":"Staro Nagori\u010dane Municipality","country_id":129,"country_code":"MK","country_name":"North Macedonia","state_code":"71","type":null,"latitude":"42.21916920","longitude":"21.90455410","name_ar":"Staro Nagori\u010dane Municipality"},{"id":661,"name":"\u0160tip Municipality","country_id":129,"country_code":"MK","country_name":"North Macedonia","state_code":"83","type":null,"latitude":"41.70792970","longitude":"22.19071220","name_ar":"\u0160tip Municipality"},{"id":700,"name":"Struga Municipality","country_id":129,"country_code":"MK","country_name":"North Macedonia","state_code":"72","type":null,"latitude":"41.31737440","longitude":"20.66456830","name_ar":"Struga Municipality"},{"id":710,"name":"Strumica Municipality","country_id":129,"country_code":"MK","country_name":"North Macedonia","state_code":"73","type":null,"latitude":"41.43780040","longitude":"22.64274280","name_ar":"Strumica Municipality"},{"id":711,"name":"Studeni\u010dani Municipality","country_id":129,"country_code":"MK","country_name":"North Macedonia","state_code":"74","type":null,"latitude":"41.92256390","longitude":"21.53639650","name_ar":"Studeni\u010dani Municipality"},{"id":680,"name":"\u0160uto Orizari Municipality","country_id":129,"country_code":"MK","country_name":"North Macedonia","state_code":"84","type":null,"latitude":"42.02904160","longitude":"21.40970270","name_ar":"\u0160uto Orizari Municipality"},{"id":640,"name":"Sveti Nikole Municipality","country_id":129,"country_code":"MK","country_name":"North Macedonia","state_code":"69","type":null,"latitude":"41.89803120","longitude":"21.99994350","name_ar":"Sveti Nikole Municipality"},{"id":654,"name":"Tearce Municipality","country_id":129,"country_code":"MK","country_name":"North Macedonia","state_code":"75","type":null,"latitude":"42.07775110","longitude":"21.05349230","name_ar":"Tearce Municipality"},{"id":663,"name":"Tetovo Municipality","country_id":129,"country_code":"MK","country_name":"North Macedonia","state_code":"76","type":null,"latitude":"42.02748600","longitude":"20.95066360","name_ar":"Tetovo Municipality"},{"id":671,"name":"Valandovo Municipality","country_id":129,"country_code":"MK","country_name":"North Macedonia","state_code":"10","type":null,"latitude":"41.32119090","longitude":"22.50066930","name_ar":"Valandovo Municipality"},{"id":658,"name":"Vasilevo Municipality","country_id":129,"country_code":"MK","country_name":"North Macedonia","state_code":"11","type":null,"latitude":"41.47416990","longitude":"22.64221280","name_ar":"Vasilevo Municipality"},{"id":651,"name":"Veles Municipality","country_id":129,"country_code":"MK","country_name":"North Macedonia","state_code":"13","type":null,"latitude":"41.72744260","longitude":"21.71376940","name_ar":"Veles Municipality"},{"id":662,"name":"Vev\u010dani Municipality","country_id":129,"country_code":"MK","country_name":"North Macedonia","state_code":"12","type":null,"latitude":"41.24075430","longitude":"20.59156490","name_ar":"Vev\u010dani Municipality"},{"id":672,"name":"Vinica Municipality","country_id":129,"country_code":"MK","country_name":"North Macedonia","state_code":"14","type":null,"latitude":"41.85710200","longitude":"22.57218810","name_ar":"Vinica Municipality"},{"id":650,"name":"Vrane\u0161tica Municipality","country_id":129,"country_code":"MK","country_name":"North Macedonia","state_code":"15","type":null,"latitude":"41.48290870","longitude":"21.05796320","name_ar":"Vrane\u0161tica Municipality"},{"id":689,"name":"Vrap\u010di\u0161te Municipality","country_id":129,"country_code":"MK","country_name":"North Macedonia","state_code":"16","type":null,"latitude":"41.87911600","longitude":"20.83145000","name_ar":"Vrap\u010di\u0161te Municipality"},{"id":642,"name":"Zajas Municipality","country_id":129,"country_code":"MK","country_name":"North Macedonia","state_code":"31","type":null,"latitude":"41.60303280","longitude":"20.87913430","name_ar":"Zajas Municipality"},{"id":706,"name":"Zelenikovo Municipality","country_id":129,"country_code":"MK","country_name":"North Macedonia","state_code":"32","type":null,"latitude":"41.87338120","longitude":"21.60272500","name_ar":"Zelenikovo Municipality"},{"id":668,"name":"\u017delino Municipality","country_id":129,"country_code":"MK","country_name":"North Macedonia","state_code":"30","type":null,"latitude":"41.90065310","longitude":"21.11757670","name_ar":"\u017delino Municipality"},{"id":673,"name":"Zrnovci Municipality","country_id":129,"country_code":"MK","country_name":"North Macedonia","state_code":"33","type":null,"latitude":"41.82282210","longitude":"22.41722560","name_ar":"Zrnovci Municipality"}]