[{"id":110,"name":"Attard","country_id":135,"country_code":"MT","country_name":"Malta","state_code":"01","type":null,"latitude":"35.89049670","longitude":"14.41993220","name_ar":"Attard"},{"id":108,"name":"Balzan","country_id":135,"country_code":"MT","country_name":"Malta","state_code":"02","type":null,"latitude":"35.89574140","longitude":"14.45340650","name_ar":"Balzan"},{"id":107,"name":"Birgu","country_id":135,"country_code":"MT","country_name":"Malta","state_code":"03","type":null,"latitude":"35.88792140","longitude":"14.52256200","name_ar":"Birgu"},{"id":97,"name":"Birkirkara","country_id":135,"country_code":"MT","country_name":"Malta","state_code":"04","type":null,"latitude":"35.89547060","longitude":"14.46650720","name_ar":"Birkirkara"},{"id":88,"name":"Bir\u017cebbu\u0121a","country_id":135,"country_code":"MT","country_name":"Malta","state_code":"05","type":null,"latitude":"35.81359890","longitude":"14.52474630","name_ar":"Bir\u017cebbu\u0121a"},{"id":138,"name":"Cospicua","country_id":135,"country_code":"MT","country_name":"Malta","state_code":"06","type":null,"latitude":"35.88067530","longitude":"14.52183380","name_ar":"Cospicua"},{"id":117,"name":"Dingli","country_id":135,"country_code":"MT","country_name":"Malta","state_code":"07","type":null,"latitude":"35.86273090","longitude":"14.38501070","name_ar":"Dingli"},{"id":129,"name":"Fgura","country_id":135,"country_code":"MT","country_name":"Malta","state_code":"08","type":null,"latitude":"35.87382690","longitude":"14.52329010","name_ar":"Fgura"},{"id":84,"name":"Floriana","country_id":135,"country_code":"MT","country_name":"Malta","state_code":"09","type":null,"latitude":"45.49521850","longitude":"-73.71395760","name_ar":"Floriana"},{"id":134,"name":"Fontana","country_id":135,"country_code":"MT","country_name":"Malta","state_code":"10","type":null,"latitude":"34.09223350","longitude":"-117.43504800","name_ar":"Fontana"},{"id":130,"name":"G\u0127ajnsielem","country_id":135,"country_code":"MT","country_name":"Malta","state_code":"13","type":null,"latitude":"36.02479660","longitude":"14.28029610","name_ar":"G\u0127ajnsielem"},{"id":92,"name":"G\u0127arb","country_id":135,"country_code":"MT","country_name":"Malta","state_code":"14","type":null,"latitude":"36.06890900","longitude":"14.20180980","name_ar":"G\u0127arb"},{"id":120,"name":"G\u0127arg\u0127ur","country_id":135,"country_code":"MT","country_name":"Malta","state_code":"15","type":null,"latitude":"35.92205690","longitude":"14.45631760","name_ar":"G\u0127arg\u0127ur"},{"id":106,"name":"G\u0127asri","country_id":135,"country_code":"MT","country_name":"Malta","state_code":"16","type":null,"latitude":"36.06680750","longitude":"14.21924750","name_ar":"G\u0127asri"},{"id":124,"name":"G\u0127axaq","country_id":135,"country_code":"MT","country_name":"Malta","state_code":"17","type":null,"latitude":"35.84403590","longitude":"14.51600900","name_ar":"G\u0127axaq"},{"id":118,"name":"Gudja","country_id":135,"country_code":"MT","country_name":"Malta","state_code":"11","type":null,"latitude":"35.84698030","longitude":"14.50290400","name_ar":"Gudja"},{"id":113,"name":"G\u017cira","country_id":135,"country_code":"MT","country_name":"Malta","state_code":"12","type":null,"latitude":"35.90589700","longitude":"14.49533380","name_ar":"G\u017cira"},{"id":105,"name":"\u0126amrun","country_id":135,"country_code":"MT","country_name":"Malta","state_code":"18","type":null,"latitude":"35.88612370","longitude":"14.48834420","name_ar":"\u0126amrun"},{"id":93,"name":"Iklin","country_id":135,"country_code":"MT","country_name":"Malta","state_code":"19","type":null,"latitude":"35.90987740","longitude":"14.45777320","name_ar":"Iklin"},{"id":99,"name":"Kalkara","country_id":135,"country_code":"MT","country_name":"Malta","state_code":"21","type":null,"latitude":"35.89142420","longitude":"14.53202780","name_ar":"Kalkara"},{"id":91,"name":"Ker\u010bem","country_id":135,"country_code":"MT","country_name":"Malta","state_code":"22","type":null,"latitude":"36.04479390","longitude":"14.22506050","name_ar":"Ker\u010bem"},{"id":82,"name":"Kirkop","country_id":135,"country_code":"MT","country_name":"Malta","state_code":"23","type":null,"latitude":"35.84378620","longitude":"14.48543240","name_ar":"Kirkop"},{"id":126,"name":"Lija","country_id":135,"country_code":"MT","country_name":"Malta","state_code":"24","type":null,"latitude":"49.18007600","longitude":"-123.10331700","name_ar":"Lija"},{"id":77,"name":"Luqa","country_id":135,"country_code":"MT","country_name":"Malta","state_code":"25","type":null,"latitude":"35.85828650","longitude":"14.48688830","name_ar":"Luqa"},{"id":128,"name":"Marsa","country_id":135,"country_code":"MT","country_name":"Malta","state_code":"26","type":null,"latitude":"34.03195870","longitude":"-118.44555350","name_ar":"Marsa"},{"id":137,"name":"Marsaskala","country_id":135,"country_code":"MT","country_name":"Malta","state_code":"27","type":null,"latitude":"35.86036400","longitude":"14.55678760","name_ar":"Marsaskala"},{"id":78,"name":"Marsaxlokk","country_id":135,"country_code":"MT","country_name":"Malta","state_code":"28","type":null,"latitude":"35.84116990","longitude":"14.53930970","name_ar":"Marsaxlokk"},{"id":89,"name":"Mdina","country_id":135,"country_code":"MT","country_name":"Malta","state_code":"29","type":null,"latitude":"35.88809300","longitude":"14.40683570","name_ar":"Mdina"},{"id":102,"name":"Mellie\u0127a","country_id":135,"country_code":"MT","country_name":"Malta","state_code":"30","type":null,"latitude":"35.95235290","longitude":"14.35009750","name_ar":"Mellie\u0127a"},{"id":109,"name":"M\u0121arr","country_id":135,"country_code":"MT","country_name":"Malta","state_code":"31","type":null,"latitude":"35.91893270","longitude":"14.36173430","name_ar":"M\u0121arr"},{"id":140,"name":"Mosta","country_id":135,"country_code":"MT","country_name":"Malta","state_code":"32","type":null,"latitude":"35.91415040","longitude":"14.42284270","name_ar":"Mosta"},{"id":74,"name":"Mqabba","country_id":135,"country_code":"MT","country_name":"Malta","state_code":"33","type":null,"latitude":"35.84441430","longitude":"14.46941860","name_ar":"Mqabba"},{"id":96,"name":"Msida","country_id":135,"country_code":"MT","country_name":"Malta","state_code":"34","type":null,"latitude":"35.89563880","longitude":"14.48688830","name_ar":"Msida"},{"id":131,"name":"Mtarfa","country_id":135,"country_code":"MT","country_name":"Malta","state_code":"35","type":null,"latitude":"35.88951250","longitude":"14.39519530","name_ar":"Mtarfa"},{"id":132,"name":"Munxar","country_id":135,"country_code":"MT","country_name":"Malta","state_code":"36","type":null,"latitude":"36.02880580","longitude":"14.22506050","name_ar":"Munxar"},{"id":133,"name":"Nadur","country_id":135,"country_code":"MT","country_name":"Malta","state_code":"37","type":null,"latitude":"36.04470190","longitude":"14.29192730","name_ar":"Nadur"},{"id":112,"name":"Naxxar","country_id":135,"country_code":"MT","country_name":"Malta","state_code":"38","type":null,"latitude":"35.93175180","longitude":"14.43157460","name_ar":"Naxxar"},{"id":115,"name":"Paola","country_id":135,"country_code":"MT","country_name":"Malta","state_code":"39","type":null,"latitude":"38.57223530","longitude":"-94.87912940","name_ar":"Paola"},{"id":125,"name":"Pembroke","country_id":135,"country_code":"MT","country_name":"Malta","state_code":"40","type":null,"latitude":"34.68016260","longitude":"-79.19503730","name_ar":"Pembroke"},{"id":127,"name":"Piet\u00e0","country_id":135,"country_code":"MT","country_name":"Malta","state_code":"41","type":null,"latitude":"42.21862000","longitude":"-83.73464700","name_ar":"Piet\u00e0"},{"id":79,"name":"Qala","country_id":135,"country_code":"MT","country_name":"Malta","state_code":"42","type":null,"latitude":"36.03886280","longitude":"14.31810100","name_ar":"Qala"},{"id":119,"name":"Qormi","country_id":135,"country_code":"MT","country_name":"Malta","state_code":"43","type":null,"latitude":"35.87643880","longitude":"14.46941860","name_ar":"Qormi"},{"id":111,"name":"Qrendi","country_id":135,"country_code":"MT","country_name":"Malta","state_code":"44","type":null,"latitude":"35.83284880","longitude":"14.45486210","name_ar":"Qrendi"},{"id":83,"name":"Rabat","country_id":135,"country_code":"MT","country_name":"Malta","state_code":"46","type":null,"latitude":"33.97159040","longitude":"-6.84981290","name_ar":"Rabat"},{"id":87,"name":"Saint Lawrence","country_id":135,"country_code":"MT","country_name":"Malta","state_code":"50","type":null,"latitude":"38.95780560","longitude":"-95.25656890","name_ar":"Saint Lawrence"},{"id":75,"name":"San \u0120wann","country_id":135,"country_code":"MT","country_name":"Malta","state_code":"49","type":null,"latitude":"35.90773650","longitude":"14.47524160","name_ar":"San \u0120wann"},{"id":116,"name":"Sannat","country_id":135,"country_code":"MT","country_name":"Malta","state_code":"52","type":null,"latitude":"36.01926430","longitude":"14.25994370","name_ar":"Sannat"},{"id":94,"name":"Santa Lu\u010bija","country_id":135,"country_code":"MT","country_name":"Malta","state_code":"53","type":null,"latitude":"35.85614200","longitude":"14.50436000","name_ar":"Santa Lu\u010bija"},{"id":90,"name":"Santa Venera","country_id":135,"country_code":"MT","country_name":"Malta","state_code":"54","type":null,"latitude":"35.89022010","longitude":"14.47669740","name_ar":"Santa Venera"},{"id":136,"name":"Senglea","country_id":135,"country_code":"MT","country_name":"Malta","state_code":"20","type":null,"latitude":"35.88730410","longitude":"14.51673710","name_ar":"Senglea"},{"id":98,"name":"Si\u0121\u0121iewi","country_id":135,"country_code":"MT","country_name":"Malta","state_code":"55","type":null,"latitude":"35.84637420","longitude":"14.43157460","name_ar":"Si\u0121\u0121iewi"},{"id":104,"name":"Sliema","country_id":135,"country_code":"MT","country_name":"Malta","state_code":"56","type":null,"latitude":"35.91100810","longitude":"14.50290400","name_ar":"Sliema"},{"id":100,"name":"St. Julian's","country_id":135,"country_code":"MT","country_name":"Malta","state_code":"48","type":null,"latitude":"42.21225130","longitude":"-85.89171270","name_ar":"St. Julian's"},{"id":139,"name":"St. Paul's Bay","country_id":135,"country_code":"MT","country_name":"Malta","state_code":"51","type":null,"latitude":"35.93601700","longitude":"14.39665030","name_ar":"St. Paul's Bay"},{"id":86,"name":"Swieqi","country_id":135,"country_code":"MT","country_name":"Malta","state_code":"57","type":null,"latitude":"35.91911820","longitude":"14.46941860","name_ar":"Swieqi"},{"id":122,"name":"Ta' Xbiex","country_id":135,"country_code":"MT","country_name":"Malta","state_code":"58","type":null,"latitude":"35.89914480","longitude":"14.49635190","name_ar":"Ta' Xbiex"},{"id":103,"name":"Tarxien","country_id":135,"country_code":"MT","country_name":"Malta","state_code":"59","type":null,"latitude":"35.86725520","longitude":"14.51164050","name_ar":"Tarxien"},{"id":95,"name":"Valletta","country_id":135,"country_code":"MT","country_name":"Malta","state_code":"60","type":null,"latitude":"35.89890850","longitude":"14.51455280","name_ar":"Valletta"},{"id":101,"name":"Victoria","country_id":135,"country_code":"MT","country_name":"Malta","state_code":"45","type":null,"latitude":"28.80526740","longitude":"-97.00359820","name_ar":"Victoria"},{"id":114,"name":"Xag\u0127ra","country_id":135,"country_code":"MT","country_name":"Malta","state_code":"61","type":null,"latitude":"36.05084500","longitude":"14.26748200","name_ar":"Xag\u0127ra"},{"id":121,"name":"Xewkija","country_id":135,"country_code":"MT","country_name":"Malta","state_code":"62","type":null,"latitude":"36.02992360","longitude":"14.25994370","name_ar":"Xewkija"},{"id":81,"name":"Xg\u0127ajra","country_id":135,"country_code":"MT","country_name":"Malta","state_code":"63","type":null,"latitude":"35.88682820","longitude":"14.54723910","name_ar":"Xg\u0127ajra"},{"id":123,"name":"\u017babbar","country_id":135,"country_code":"MT","country_name":"Malta","state_code":"64","type":null,"latitude":"35.87247150","longitude":"14.54513540","name_ar":"\u017babbar"},{"id":85,"name":"\u017bebbu\u0121 Gozo","country_id":135,"country_code":"MT","country_name":"Malta","state_code":"65","type":null,"latitude":"36.07164030","longitude":"14.24540800","name_ar":"\u017bebbu\u0121 Gozo"},{"id":80,"name":"\u017bebbu\u0121 Malta","country_id":135,"country_code":"MT","country_name":"Malta","state_code":"66","type":null,"latitude":"35.87646480","longitude":"14.43908400","name_ar":"\u017bebbu\u0121 Malta"},{"id":135,"name":"\u017bejtun","country_id":135,"country_code":"MT","country_name":"Malta","state_code":"67","type":null,"latitude":"35.85487140","longitude":"14.53639690","name_ar":"\u017bejtun"},{"id":76,"name":"\u017burrieq","country_id":135,"country_code":"MT","country_name":"Malta","state_code":"68","type":null,"latitude":"35.82163060","longitude":"14.48106480","name_ar":"\u017burrieq"}]