[{"id":3327,"name":"Cabo Delgado Province","country_id":150,"country_code":"MZ","country_name":"Mozambique","state_code":"P","type":null,"latitude":"-12.33354740","longitude":"39.32062410","name_ar":"Cabo Delgado Province"},{"id":3329,"name":"Gaza Province","country_id":150,"country_code":"MZ","country_name":"Mozambique","state_code":"G","type":null,"latitude":"-23.02219280","longitude":"32.71813750","name_ar":"Gaza Province"},{"id":3330,"name":"Inhambane Province","country_id":150,"country_code":"MZ","country_name":"Mozambique","state_code":"I","type":null,"latitude":"-22.85279970","longitude":"34.55087580","name_ar":"Inhambane Province"},{"id":3337,"name":"Manica Province","country_id":150,"country_code":"MZ","country_name":"Mozambique","state_code":"B","type":null,"latitude":"-19.50597870","longitude":"33.43835300","name_ar":"Manica Province"},{"id":3335,"name":"Maputo","country_id":150,"country_code":"MZ","country_name":"Mozambique","state_code":"MPM","type":null,"latitude":"-25.96924800","longitude":"32.57317460","name_ar":"Maputo"},{"id":3332,"name":"Maputo Province","country_id":150,"country_code":"MZ","country_name":"Mozambique","state_code":"L","type":null,"latitude":"-25.25698760","longitude":"32.53727410","name_ar":"Maputo Province"},{"id":3336,"name":"Nampula Province","country_id":150,"country_code":"MZ","country_name":"Mozambique","state_code":"N","type":null,"latitude":"-14.76049310","longitude":"39.32062410","name_ar":"Nampula Province"},{"id":3333,"name":"Niassa Province","country_id":150,"country_code":"MZ","country_name":"Mozambique","state_code":"A","type":null,"latitude":"-12.78262020","longitude":"36.60939260","name_ar":"Niassa Province"},{"id":3331,"name":"Sofala Province","country_id":150,"country_code":"MZ","country_name":"Mozambique","state_code":"S","type":null,"latitude":"-19.20390730","longitude":"34.86241660","name_ar":"Sofala Province"},{"id":3334,"name":"Tete Province","country_id":150,"country_code":"MZ","country_name":"Mozambique","state_code":"T","type":null,"latitude":"-15.65960560","longitude":"32.71813750","name_ar":"Tete Province"},{"id":3328,"name":"Zambezia Province","country_id":150,"country_code":"MZ","country_name":"Mozambique","state_code":"Q","type":null,"latitude":"-16.56389870","longitude":"36.60939260","name_ar":"Zambezia Province"}]