[{"id":946,"name":"Boaco","country_id":159,"country_code":"NI","country_name":"Nicaragua","state_code":"BO","type":"department","latitude":"12.46928400","longitude":"-85.66146820","name_ar":"Boaco"},{"id":950,"name":"Carazo","country_id":159,"country_code":"NI","country_name":"Nicaragua","state_code":"CA","type":"department","latitude":"11.72747290","longitude":"-86.21584970","name_ar":"Carazo"},{"id":954,"name":"Chinandega","country_id":159,"country_code":"NI","country_name":"Nicaragua","state_code":"CI","type":"department","latitude":"12.88200620","longitude":"-87.14228950","name_ar":"Chinandega"},{"id":940,"name":"Chontales","country_id":159,"country_code":"NI","country_name":"Nicaragua","state_code":"CO","type":"department","latitude":"11.93947170","longitude":"-85.18940450","name_ar":"Chontales"},{"id":945,"name":"Estel\u00ed","country_id":159,"country_code":"NI","country_name":"Nicaragua","state_code":"ES","type":"department","latitude":"13.08511390","longitude":"-86.36301970","name_ar":"Estel\u00ed"},{"id":943,"name":"Granada","country_id":159,"country_code":"NI","country_name":"Nicaragua","state_code":"GR","type":"department","latitude":"11.93440730","longitude":"-85.95600050","name_ar":"Granada"},{"id":955,"name":"Jinotega","country_id":159,"country_code":"NI","country_name":"Nicaragua","state_code":"JI","type":"department","latitude":"13.08839070","longitude":"-85.99939970","name_ar":"Jinotega"},{"id":944,"name":"Le\u00f3n","country_id":159,"country_code":"NI","country_name":"Nicaragua","state_code":"LE","type":"department","latitude":"12.50920370","longitude":"-86.66110830","name_ar":"Le\u00f3n"},{"id":948,"name":"Madriz","country_id":159,"country_code":"NI","country_name":"Nicaragua","state_code":"MD","type":"department","latitude":"13.47260050","longitude":"-86.45920910","name_ar":"Madriz"},{"id":941,"name":"Managua","country_id":159,"country_code":"NI","country_name":"Nicaragua","state_code":"MN","type":"department","latitude":"12.13916990","longitude":"-86.33767610","name_ar":"Managua"},{"id":953,"name":"Masaya","country_id":159,"country_code":"NI","country_name":"Nicaragua","state_code":"MS","type":"department","latitude":"11.97593280","longitude":"-86.07334980","name_ar":"Masaya"},{"id":947,"name":"Matagalpa","country_id":159,"country_code":"NI","country_name":"Nicaragua","state_code":"MT","type":"department","latitude":"12.94984360","longitude":"-85.43755740","name_ar":"Matagalpa"},{"id":951,"name":"North Caribbean Coast","country_id":159,"country_code":"NI","country_name":"Nicaragua","state_code":"AN","type":"autonomous region","latitude":"13.83944560","longitude":"-83.93208060","name_ar":"North Caribbean Coast"},{"id":4964,"name":"Nueva Segovia","country_id":159,"country_code":"NI","country_name":"Nicaragua","state_code":"NS","type":"department","latitude":"13.76570610","longitude":"-86.53700390","name_ar":"Nueva Segovia"},{"id":949,"name":"R\u00edo San Juan","country_id":159,"country_code":"NI","country_name":"Nicaragua","state_code":"SJ","type":"department","latitude":"11.47816100","longitude":"-84.77333250","name_ar":"R\u00edo San Juan"},{"id":942,"name":"Rivas","country_id":159,"country_code":"NI","country_name":"Nicaragua","state_code":"RI","type":"department","latitude":"11.40234900","longitude":"-85.68457800","name_ar":"Rivas"},{"id":952,"name":"South Caribbean Coast","country_id":159,"country_code":"NI","country_name":"Nicaragua","state_code":"AS","type":"autonomous region","latitude":"12.19185020","longitude":"-84.10128610","name_ar":"South Caribbean Coast"}]