[{"id":2082,"name":"Bagmati Zone","country_id":154,"country_code":"NP","country_name":"Nepal","state_code":"BA","type":null,"latitude":"28.03675770","longitude":"85.43755740","name_ar":"Bagmati Zone"},{"id":2071,"name":"Bheri Zone","country_id":154,"country_code":"NP","country_name":"Nepal","state_code":"BH","type":null,"latitude":"28.51745600","longitude":"81.77870210","name_ar":"Bheri Zone"},{"id":2073,"name":"Central Region","country_id":154,"country_code":"NP","country_name":"Nepal","state_code":"1","type":null,"latitude":null,"longitude":null,"name_ar":"Central Region"},{"id":2080,"name":"Dhaulagiri Zone","country_id":154,"country_code":"NP","country_name":"Nepal","state_code":"DH","type":null,"latitude":"28.61117600","longitude":"83.50702030","name_ar":"Dhaulagiri Zone"},{"id":2069,"name":"Eastern Development Region","country_id":154,"country_code":"NP","country_name":"Nepal","state_code":"4","type":null,"latitude":"27.33090720","longitude":"87.06242610","name_ar":"Eastern Development Region"},{"id":2068,"name":"Far-Western Development Region","country_id":154,"country_code":"NP","country_name":"Nepal","state_code":"5","type":null,"latitude":"29.29878710","longitude":"80.98710740","name_ar":"Far-Western Development Region"},{"id":2081,"name":"Gandaki Zone","country_id":154,"country_code":"NP","country_name":"Nepal","state_code":"GA","type":null,"latitude":"28.37320370","longitude":"84.43827210","name_ar":"Gandaki Zone"},{"id":2076,"name":"Janakpur Zone","country_id":154,"country_code":"NP","country_name":"Nepal","state_code":"JA","type":null,"latitude":"27.21108990","longitude":"86.01215730","name_ar":"Janakpur Zone"},{"id":2079,"name":"Karnali Zone","country_id":154,"country_code":"NP","country_name":"Nepal","state_code":"KA","type":null,"latitude":"29.38625550","longitude":"82.38857830","name_ar":"Karnali Zone"},{"id":2072,"name":"Kosi Zone","country_id":154,"country_code":"NP","country_name":"Nepal","state_code":"KO","type":null,"latitude":"27.05365240","longitude":"87.30161320","name_ar":"Kosi Zone"},{"id":2074,"name":"Lumbini Zone","country_id":154,"country_code":"NP","country_name":"Nepal","state_code":"LU","type":null,"latitude":"27.45000000","longitude":"83.25000000","name_ar":"Lumbini Zone"},{"id":2083,"name":"Mahakali Zone","country_id":154,"country_code":"NP","country_name":"Nepal","state_code":"MA","type":null,"latitude":"29.36010790","longitude":"80.54384500","name_ar":"Mahakali Zone"},{"id":2070,"name":"Mechi Zone","country_id":154,"country_code":"NP","country_name":"Nepal","state_code":"ME","type":null,"latitude":"26.87600070","longitude":"87.93348030","name_ar":"Mechi Zone"},{"id":2066,"name":"Mid-Western Region","country_id":154,"country_code":"NP","country_name":"Nepal","state_code":"2","type":null,"latitude":"38.41118410","longitude":"-90.38320980","name_ar":"Mid-Western Region"},{"id":2075,"name":"Narayani Zone","country_id":154,"country_code":"NP","country_name":"Nepal","state_code":"NA","type":null,"latitude":"27.36117660","longitude":"84.85679320","name_ar":"Narayani Zone"},{"id":2077,"name":"Rapti Zone","country_id":154,"country_code":"NP","country_name":"Nepal","state_code":"RA","type":null,"latitude":"28.27434700","longitude":"82.38857830","name_ar":"Rapti Zone"},{"id":2084,"name":"Sagarmatha Zone","country_id":154,"country_code":"NP","country_name":"Nepal","state_code":"SA","type":null,"latitude":"27.32382630","longitude":"86.74163740","name_ar":"Sagarmatha Zone"},{"id":2078,"name":"Seti Zone","country_id":154,"country_code":"NP","country_name":"Nepal","state_code":"SE","type":null,"latitude":"29.69054270","longitude":"81.33994140","name_ar":"Seti Zone"},{"id":2067,"name":"Western Region","country_id":154,"country_code":"NP","country_name":"Nepal","state_code":"3","type":null,"latitude":null,"longitude":null,"name_ar":"Western Region"}]