[{"id":4656,"name":"Aiwo District","country_id":153,"country_code":"NR","country_name":"Nauru","state_code":"01","type":null,"latitude":"-0.53400120","longitude":"166.91388730","name_ar":"Aiwo District"},{"id":4658,"name":"Anabar District","country_id":153,"country_code":"NR","country_name":"Nauru","state_code":"02","type":null,"latitude":"-0.51335170","longitude":"166.94846240","name_ar":"Anabar District"},{"id":4667,"name":"Anetan District","country_id":153,"country_code":"NR","country_name":"Nauru","state_code":"03","type":null,"latitude":"-0.50643430","longitude":"166.94270060","name_ar":"Anetan District"},{"id":4663,"name":"Anibare District","country_id":153,"country_code":"NR","country_name":"Nauru","state_code":"04","type":null,"latitude":"-0.52947580","longitude":"166.95134320","name_ar":"Anibare District"},{"id":4660,"name":"Baiti District","country_id":153,"country_code":"NR","country_name":"Nauru","state_code":"05","type":null,"latitude":"-0.51043100","longitude":"166.92757440","name_ar":"Baiti District"},{"id":4665,"name":"Boe District","country_id":153,"country_code":"NR","country_name":"Nauru","state_code":"06","type":null,"latitude":"39.07327760","longitude":"-94.57104980","name_ar":"Boe District"},{"id":4662,"name":"Buada District","country_id":153,"country_code":"NR","country_name":"Nauru","state_code":"07","type":null,"latitude":"-0.53287770","longitude":"166.92685410","name_ar":"Buada District"},{"id":4666,"name":"Denigomodu District","country_id":153,"country_code":"NR","country_name":"Nauru","state_code":"08","type":null,"latitude":"-0.52479640","longitude":"166.91676890","name_ar":"Denigomodu District"},{"id":4654,"name":"Ewa District","country_id":153,"country_code":"NR","country_name":"Nauru","state_code":"09","type":null,"latitude":"-0.50872410","longitude":"166.93693840","name_ar":"Ewa District"},{"id":4661,"name":"Ijuw District","country_id":153,"country_code":"NR","country_name":"Nauru","state_code":"10","type":null,"latitude":"-0.52027670","longitude":"166.95710460","name_ar":"Ijuw District"},{"id":4657,"name":"Meneng District","country_id":153,"country_code":"NR","country_name":"Nauru","state_code":"11","type":null,"latitude":"-0.54672400","longitude":"166.93837900","name_ar":"Meneng District"},{"id":4659,"name":"Nibok District","country_id":153,"country_code":"NR","country_name":"Nauru","state_code":"12","type":null,"latitude":"-0.51962080","longitude":"166.91893010","name_ar":"Nibok District"},{"id":4655,"name":"Uaboe District","country_id":153,"country_code":"NR","country_name":"Nauru","state_code":"13","type":null,"latitude":"-0.52022220","longitude":"166.93117610","name_ar":"Uaboe District"},{"id":4664,"name":"Yaren District","country_id":153,"country_code":"NR","country_name":"Nauru","state_code":"14","type":null,"latitude":"-0.54668570","longitude":"166.92109130","name_ar":"Yaren District"}]