[{"id":3058,"name":"Ad Dakhiliyah","country_id":166,"country_code":"OM","country_name":"Oman","state_code":"DA","type":null,"latitude":"22.85887580","longitude":"57.53943560","name_ar":"Ad Dakhiliyah"},{"id":3047,"name":"Ad Dhahirah","country_id":166,"country_code":"OM","country_name":"Oman","state_code":"ZA","type":null,"latitude":"23.21616740","longitude":"56.49074440","name_ar":"Ad Dhahirah"},{"id":3048,"name":"Al Batinah North","country_id":166,"country_code":"OM","country_name":"Oman","state_code":"BS","type":null,"latitude":"24.34198460","longitude":"56.72989040","name_ar":"Al Batinah North"},{"id":3050,"name":"Al Batinah Region","country_id":166,"country_code":"OM","country_name":"Oman","state_code":"BA","type":null,"latitude":"24.34198460","longitude":"56.72989040","name_ar":"Al Batinah Region"},{"id":3049,"name":"Al Batinah South","country_id":166,"country_code":"OM","country_name":"Oman","state_code":"BJ","type":null,"latitude":"23.43149030","longitude":"57.42397960","name_ar":"Al Batinah South"},{"id":3059,"name":"Al Buraimi","country_id":166,"country_code":"OM","country_name":"Oman","state_code":"BU","type":null,"latitude":"24.16714130","longitude":"56.11422530","name_ar":"Al Buraimi"},{"id":3056,"name":"Al Wusta","country_id":166,"country_code":"OM","country_name":"Oman","state_code":"WU","type":null,"latitude":"19.95710780","longitude":"56.27568460","name_ar":"Al Wusta"},{"id":3053,"name":"Ash Sharqiyah North","country_id":166,"country_code":"OM","country_name":"Oman","state_code":"SS","type":null,"latitude":"22.71411960","longitude":"58.53080640","name_ar":"Ash Sharqiyah North"},{"id":3051,"name":"Ash Sharqiyah Region","country_id":166,"country_code":"OM","country_name":"Oman","state_code":"SH","type":null,"latitude":"22.71411960","longitude":"58.53080640","name_ar":"Ash Sharqiyah Region"},{"id":3054,"name":"Ash Sharqiyah South","country_id":166,"country_code":"OM","country_name":"Oman","state_code":"SJ","type":null,"latitude":"22.01582490","longitude":"59.32519220","name_ar":"Ash Sharqiyah South"},{"id":3057,"name":"Dhofar","country_id":166,"country_code":"OM","country_name":"Oman","state_code":"ZU","type":null,"latitude":"17.03221210","longitude":"54.14252140","name_ar":"Dhofar"},{"id":3052,"name":"Musandam","country_id":166,"country_code":"OM","country_name":"Oman","state_code":"MU","type":null,"latitude":"26.19861440","longitude":"56.24609490","name_ar":"Musandam"},{"id":3055,"name":"Muscat","country_id":166,"country_code":"OM","country_name":"Oman","state_code":"MA","type":null,"latitude":"23.58803070","longitude":"58.38287170","name_ar":"Muscat"}]