[{"id":3685,"name":"Amazonas","country_id":173,"country_code":"PE","country_name":"Peru","state_code":"AMA","type":null,"latitude":null,"longitude":null,"name_ar":"Amazonas"},{"id":3680,"name":"\u00c1ncash","country_id":173,"country_code":"PE","country_name":"Peru","state_code":"ANC","type":null,"latitude":"-9.32504970","longitude":"-77.56194190","name_ar":"\u00c1ncash"},{"id":3699,"name":"Apur\u00edmac","country_id":173,"country_code":"PE","country_name":"Peru","state_code":"APU","type":null,"latitude":"-14.05045330","longitude":"-73.08774900","name_ar":"Apur\u00edmac"},{"id":3681,"name":"Arequipa","country_id":173,"country_code":"PE","country_name":"Peru","state_code":"ARE","type":null,"latitude":"-16.40904740","longitude":"-71.53745100","name_ar":"Arequipa"},{"id":3692,"name":"Ayacucho","country_id":173,"country_code":"PE","country_name":"Peru","state_code":"AYA","type":null,"latitude":"-13.16387370","longitude":"-74.22356410","name_ar":"Ayacucho"},{"id":3688,"name":"Cajamarca","country_id":173,"country_code":"PE","country_name":"Peru","state_code":"CAJ","type":null,"latitude":"-7.16174650","longitude":"-78.51278550","name_ar":"Cajamarca"},{"id":3701,"name":"Callao","country_id":173,"country_code":"PE","country_name":"Peru","state_code":"CAL","type":null,"latitude":"-12.05084910","longitude":"-77.12598430","name_ar":"Callao"},{"id":3691,"name":"Cusco","country_id":173,"country_code":"PE","country_name":"Peru","state_code":"CUS","type":null,"latitude":"-13.53195000","longitude":"-71.96746260","name_ar":"Cusco"},{"id":3679,"name":"Huancavelica","country_id":173,"country_code":"PE","country_name":"Peru","state_code":"HUV","type":null,"latitude":"-12.78619780","longitude":"-74.97640240","name_ar":"Huancavelica"},{"id":3687,"name":"Huanuco","country_id":173,"country_code":"PE","country_name":"Peru","state_code":"HUC","type":null,"latitude":"-9.92076480","longitude":"-76.24108430","name_ar":"Huanuco"},{"id":3700,"name":"Ica","country_id":173,"country_code":"PE","country_name":"Peru","state_code":"ICA","type":null,"latitude":"42.35288320","longitude":"-71.04300970","name_ar":"Ica"},{"id":3693,"name":"Jun\u00edn","country_id":173,"country_code":"PE","country_name":"Peru","state_code":"JUN","type":null,"latitude":"-11.15819250","longitude":"-75.99263060","name_ar":"Jun\u00edn"},{"id":3683,"name":"La Libertad","country_id":173,"country_code":"PE","country_name":"Peru","state_code":"LAL","type":null,"latitude":"13.49069700","longitude":"-89.30846070","name_ar":"La Libertad"},{"id":3702,"name":"Lambayeque","country_id":173,"country_code":"PE","country_name":"Peru","state_code":"LAM","type":null,"latitude":"-6.71976660","longitude":"-79.90807570","name_ar":"Lambayeque"},{"id":3695,"name":"Lima","country_id":173,"country_code":"PE","country_name":"Peru","state_code":"LIM","type":null,"latitude":"-12.04637310","longitude":"-77.04275400","name_ar":"Lima"},{"id":4922,"name":"Loreto","country_id":173,"country_code":"PE","country_name":"Peru","state_code":"LOR","type":null,"latitude":"-4.37416430","longitude":"-76.13042640","name_ar":"Loreto"},{"id":3678,"name":"Madre de Dios","country_id":173,"country_code":"PE","country_name":"Peru","state_code":"MDD","type":null,"latitude":"-11.76687050","longitude":"-70.81199530","name_ar":"Madre de Dios"},{"id":3698,"name":"Moquegua","country_id":173,"country_code":"PE","country_name":"Peru","state_code":"MOQ","type":null,"latitude":"-17.19273610","longitude":"-70.93281380","name_ar":"Moquegua"},{"id":3686,"name":"Pasco","country_id":173,"country_code":"PE","country_name":"Peru","state_code":"PAS","type":null,"latitude":"46.23050490","longitude":"-119.09223160","name_ar":"Pasco"},{"id":3697,"name":"Piura","country_id":173,"country_code":"PE","country_name":"Peru","state_code":"PIU","type":null,"latitude":"-5.17828840","longitude":"-80.65488820","name_ar":"Piura"},{"id":3682,"name":"Puno","country_id":173,"country_code":"PE","country_name":"Peru","state_code":"PUN","type":null,"latitude":"-15.84022180","longitude":"-70.02188050","name_ar":"Puno"},{"id":3694,"name":"San Mart\u00edn","country_id":173,"country_code":"PE","country_name":"Peru","state_code":"SAM","type":null,"latitude":"37.08494640","longitude":"-121.61022160","name_ar":"San Mart\u00edn"},{"id":3696,"name":"Tacna","country_id":173,"country_code":"PE","country_name":"Peru","state_code":"TAC","type":null,"latitude":"-18.00656790","longitude":"-70.24627410","name_ar":"Tacna"},{"id":3689,"name":"Tumbes","country_id":173,"country_code":"PE","country_name":"Peru","state_code":"TUM","type":null,"latitude":"-3.55649210","longitude":"-80.42708850","name_ar":"Tumbes"},{"id":3684,"name":"Ucayali","country_id":173,"country_code":"PE","country_name":"Peru","state_code":"UCA","type":null,"latitude":"-9.82511830","longitude":"-73.08774900","name_ar":"Ucayali"}]