[{"id":1324,"name":"Abra","country_id":174,"country_code":"PH","country_name":"Philippines","state_code":"ABR","type":"province","latitude":"42.49708300","longitude":"-96.38441000","name_ar":"Abra"},{"id":1323,"name":"Agusan del Norte","country_id":174,"country_code":"PH","country_name":"Philippines","state_code":"AGN","type":"province","latitude":"8.94562590","longitude":"125.53192340","name_ar":"Agusan del Norte"},{"id":1326,"name":"Agusan del Sur","country_id":174,"country_code":"PH","country_name":"Philippines","state_code":"AGS","type":"province","latitude":"8.04638880","longitude":"126.06153840","name_ar":"Agusan del Sur"},{"id":1331,"name":"Aklan","country_id":174,"country_code":"PH","country_name":"Philippines","state_code":"AKL","type":"province","latitude":"11.81661090","longitude":"122.09415410","name_ar":"Aklan"},{"id":1337,"name":"Albay","country_id":174,"country_code":"PH","country_name":"Philippines","state_code":"ALB","type":"province","latitude":"13.17748270","longitude":"123.52800720","name_ar":"Albay"},{"id":1336,"name":"Antique","country_id":174,"country_code":"PH","country_name":"Philippines","state_code":"ANT","type":"province","latitude":"37.03586950","longitude":"-95.63616940","name_ar":"Antique"},{"id":1334,"name":"Apayao","country_id":174,"country_code":"PH","country_name":"Philippines","state_code":"APA","type":"province","latitude":"18.01203040","longitude":"121.17103890","name_ar":"Apayao"},{"id":1341,"name":"Aurora","country_id":174,"country_code":"PH","country_name":"Philippines","state_code":"AUR","type":"province","latitude":"36.97089100","longitude":"-93.71797900","name_ar":"Aurora"},{"id":1316,"name":"Autonomous Region in Muslim Mindanao","country_id":174,"country_code":"PH","country_name":"Philippines","state_code":"14","type":"region","latitude":"6.95683130","longitude":"124.24215970","name_ar":"Autonomous Region in Muslim Mindanao"},{"id":1346,"name":"Basilan","country_id":174,"country_code":"PH","country_name":"Philippines","state_code":"BAS","type":"province","latitude":"6.42963490","longitude":"121.98701650","name_ar":"Basilan"},{"id":1344,"name":"Bataan","country_id":174,"country_code":"PH","country_name":"Philippines","state_code":"BAN","type":"province","latitude":"14.64168420","longitude":"120.48184460","name_ar":"Bataan"},{"id":1352,"name":"Batanes","country_id":174,"country_code":"PH","country_name":"Philippines","state_code":"BTN","type":"province","latitude":"20.44850740","longitude":"121.97081290","name_ar":"Batanes"},{"id":1359,"name":"Batangas","country_id":174,"country_code":"PH","country_name":"Philippines","state_code":"BTG","type":"province","latitude":"13.75646510","longitude":"121.05830760","name_ar":"Batangas"},{"id":1363,"name":"Benguet","country_id":174,"country_code":"PH","country_name":"Philippines","state_code":"BEN","type":"province","latitude":"16.55772570","longitude":"120.80394740","name_ar":"Benguet"},{"id":1304,"name":"Bicol","country_id":174,"country_code":"PH","country_name":"Philippines","state_code":"05","type":"region","latitude":"13.42098850","longitude":"123.41367360","name_ar":"Bicol"},{"id":1274,"name":"Biliran","country_id":174,"country_code":"PH","country_name":"Philippines","state_code":"BIL","type":"province","latitude":"11.58331520","longitude":"124.46418480","name_ar":"Biliran"},{"id":1272,"name":"Bohol","country_id":174,"country_code":"PH","country_name":"Philippines","state_code":"BOH","type":"province","latitude":"9.84999110","longitude":"124.14354270","name_ar":"Bohol"},{"id":1270,"name":"Bukidnon","country_id":174,"country_code":"PH","country_name":"Philippines","state_code":"BUK","type":"province","latitude":"8.05150540","longitude":"124.92299460","name_ar":"Bukidnon"},{"id":1278,"name":"Bulacan","country_id":174,"country_code":"PH","country_name":"Philippines","state_code":"BUL","type":"province","latitude":"14.79427350","longitude":"120.87990080","name_ar":"Bulacan"},{"id":1279,"name":"Cagayan","country_id":174,"country_code":"PH","country_name":"Philippines","state_code":"CAG","type":"province","latitude":"18.24896290","longitude":"121.87878330","name_ar":"Cagayan"},{"id":1342,"name":"Cagayan Valley","country_id":174,"country_code":"PH","country_name":"Philippines","state_code":"02","type":"region","latitude":"16.97537580","longitude":"121.81070790","name_ar":"Cagayan Valley"},{"id":1294,"name":"Calabarzon","country_id":174,"country_code":"PH","country_name":"Philippines","state_code":"40","type":"region","latitude":"14.10078030","longitude":"121.07937050","name_ar":"Calabarzon"},{"id":1283,"name":"Camarines Norte","country_id":174,"country_code":"PH","country_name":"Philippines","state_code":"CAN","type":"province","latitude":"14.13902650","longitude":"122.76330360","name_ar":"Camarines Norte"},{"id":1287,"name":"Camarines Sur","country_id":174,"country_code":"PH","country_name":"Philippines","state_code":"CAS","type":"province","latitude":"13.52501970","longitude":"123.34861470","name_ar":"Camarines Sur"},{"id":1285,"name":"Camiguin","country_id":174,"country_code":"PH","country_name":"Philippines","state_code":"CAM","type":"province","latitude":"9.17321640","longitude":"124.72987650","name_ar":"Camiguin"},{"id":1292,"name":"Capiz","country_id":174,"country_code":"PH","country_name":"Philippines","state_code":"CAP","type":"province","latitude":"11.55288160","longitude":"122.74072300","name_ar":"Capiz"},{"id":1314,"name":"Caraga","country_id":174,"country_code":"PH","country_name":"Philippines","state_code":"13","type":"region","latitude":"8.80145620","longitude":"125.74068820","name_ar":"Caraga"},{"id":1301,"name":"Catanduanes","country_id":174,"country_code":"PH","country_name":"Philippines","state_code":"CAT","type":"province","latitude":"13.70886840","longitude":"124.24215970","name_ar":"Catanduanes"},{"id":1307,"name":"Cavite","country_id":174,"country_code":"PH","country_name":"Philippines","state_code":"CAV","type":"province","latitude":"14.47912970","longitude":"120.89696340","name_ar":"Cavite"},{"id":1306,"name":"Cebu","country_id":174,"country_code":"PH","country_name":"Philippines","state_code":"CEB","type":"province","latitude":"10.31569920","longitude":"123.88543660","name_ar":"Cebu"},{"id":1345,"name":"Central Luzon","country_id":174,"country_code":"PH","country_name":"Philippines","state_code":"03","type":"region","latitude":"15.48277220","longitude":"120.71200230","name_ar":"Central Luzon"},{"id":1308,"name":"Central Visayas","country_id":174,"country_code":"PH","country_name":"Philippines","state_code":"07","type":"region","latitude":"9.81687500","longitude":"124.06414190","name_ar":"Central Visayas"},{"id":1311,"name":"Compostela Valley","country_id":174,"country_code":"PH","country_name":"Philippines","state_code":"COM","type":"province","latitude":"7.51251500","longitude":"126.17626150","name_ar":"Compostela Valley"},{"id":1335,"name":"Cordillera Administrative","country_id":174,"country_code":"PH","country_name":"Philippines","state_code":"15","type":"region","latitude":"17.35125420","longitude":"121.17188510","name_ar":"Cordillera Administrative"},{"id":1320,"name":"Cotabato","country_id":174,"country_code":"PH","country_name":"Philippines","state_code":"NCO","type":"province","latitude":"7.20466680","longitude":"124.23104390","name_ar":"Cotabato"},{"id":1340,"name":"Davao","country_id":174,"country_code":"PH","country_name":"Philippines","state_code":"11","type":"region","latitude":"7.30416220","longitude":"126.08934060","name_ar":"Davao"},{"id":1319,"name":"Davao del Norte","country_id":174,"country_code":"PH","country_name":"Philippines","state_code":"DAV","type":"province","latitude":"7.56176990","longitude":"125.65328480","name_ar":"Davao del Norte"},{"id":1318,"name":"Davao del Sur","country_id":174,"country_code":"PH","country_name":"Philippines","state_code":"DAS","type":"province","latitude":"6.76626870","longitude":"125.32842690","name_ar":"Davao del Sur"},{"id":1309,"name":"Davao Occidental","country_id":174,"country_code":"PH","country_name":"Philippines","state_code":"DVO","type":"province","latitude":"6.09413960","longitude":"125.60954740","name_ar":"Davao Occidental"},{"id":1289,"name":"Davao Oriental","country_id":174,"country_code":"PH","country_name":"Philippines","state_code":"DAO","type":"province","latitude":"7.31715850","longitude":"126.54198870","name_ar":"Davao Oriental"},{"id":1291,"name":"Dinagat Islands","country_id":174,"country_code":"PH","country_name":"Philippines","state_code":"DIN","type":"province","latitude":"10.12818160","longitude":"125.60954740","name_ar":"Dinagat Islands"},{"id":1290,"name":"Eastern Samar","country_id":174,"country_code":"PH","country_name":"Philippines","state_code":"EAS","type":"province","latitude":"11.50007310","longitude":"125.49999080","name_ar":"Eastern Samar"},{"id":1322,"name":"Eastern Visayas","country_id":174,"country_code":"PH","country_name":"Philippines","state_code":"08","type":"region","latitude":"12.24455330","longitude":"125.03881640","name_ar":"Eastern Visayas"},{"id":1303,"name":"Guimaras","country_id":174,"country_code":"PH","country_name":"Philippines","state_code":"GUI","type":"province","latitude":"10.59286610","longitude":"122.63250810","name_ar":"Guimaras"},{"id":1300,"name":"Ifugao","country_id":174,"country_code":"PH","country_name":"Philippines","state_code":"IFU","type":"province","latitude":"16.83307920","longitude":"121.17103890","name_ar":"Ifugao"},{"id":1355,"name":"Ilocos","country_id":174,"country_code":"PH","country_name":"Philippines","state_code":"01","type":"region","latitude":"16.08321440","longitude":"120.61998950","name_ar":"Ilocos"},{"id":1298,"name":"Ilocos Norte","country_id":174,"country_code":"PH","country_name":"Philippines","state_code":"ILN","type":"province","latitude":"18.16472810","longitude":"120.71155920","name_ar":"Ilocos Norte"},{"id":1321,"name":"Ilocos Sur","country_id":174,"country_code":"PH","country_name":"Philippines","state_code":"ILS","type":"province","latitude":"17.22786640","longitude":"120.57395790","name_ar":"Ilocos Sur"},{"id":1315,"name":"Iloilo","country_id":174,"country_code":"PH","country_name":"Philippines","state_code":"ILI","type":"province","latitude":"10.72015010","longitude":"122.56210630","name_ar":"Iloilo"},{"id":1313,"name":"Isabela","country_id":174,"country_code":"PH","country_name":"Philippines","state_code":"ISA","type":"province","latitude":"18.50077590","longitude":"-67.02434620","name_ar":"Isabela"},{"id":1312,"name":"Kalinga","country_id":174,"country_code":"PH","country_name":"Philippines","state_code":"KAL","type":"province","latitude":"17.47404220","longitude":"121.35416310","name_ar":"Kalinga"},{"id":1317,"name":"La Union","country_id":174,"country_code":"PH","country_name":"Philippines","state_code":"LUN","type":"province","latitude":"38.87668780","longitude":"-77.12809120","name_ar":"La Union"},{"id":1328,"name":"Laguna","country_id":174,"country_code":"PH","country_name":"Philippines","state_code":"LAG","type":"province","latitude":"33.54271890","longitude":"-117.78535680","name_ar":"Laguna"},{"id":1327,"name":"Lanao del Norte","country_id":174,"country_code":"PH","country_name":"Philippines","state_code":"LAN","type":"province","latitude":"7.87218110","longitude":"123.88577470","name_ar":"Lanao del Norte"},{"id":1333,"name":"Lanao del Sur","country_id":174,"country_code":"PH","country_name":"Philippines","state_code":"LAS","type":"province","latitude":"7.82317600","longitude":"124.41982430","name_ar":"Lanao del Sur"},{"id":1332,"name":"Leyte","country_id":174,"country_code":"PH","country_name":"Philippines","state_code":"LEY","type":"province","latitude":"10.86245360","longitude":"124.88111950","name_ar":"Leyte"},{"id":1330,"name":"Maguindanao","country_id":174,"country_code":"PH","country_name":"Philippines","state_code":"MAG","type":"province","latitude":"6.94225810","longitude":"124.41982430","name_ar":"Maguindanao"},{"id":1329,"name":"Marinduque","country_id":174,"country_code":"PH","country_name":"Philippines","state_code":"MAD","type":"province","latitude":"13.47671710","longitude":"121.90321920","name_ar":"Marinduque"},{"id":1338,"name":"Masbate","country_id":174,"country_code":"PH","country_name":"Philippines","state_code":"MAS","type":"province","latitude":"12.35743460","longitude":"123.55040760","name_ar":"Masbate"},{"id":1347,"name":"Metro Manila","country_id":174,"country_code":"PH","country_name":"Philippines","state_code":"NCR","type":"province","latitude":"14.60905370","longitude":"121.02225650","name_ar":"Metro Manila"},{"id":1299,"name":"Mimaropa","country_id":174,"country_code":"PH","country_name":"Philippines","state_code":"41","type":"region","latitude":"9.84320650","longitude":"118.73647830","name_ar":"Mimaropa"},{"id":1343,"name":"Misamis Occidental","country_id":174,"country_code":"PH","country_name":"Philippines","state_code":"MSC","type":"province","latitude":"8.33749030","longitude":"123.70706190","name_ar":"Misamis Occidental"},{"id":1348,"name":"Misamis Oriental","country_id":174,"country_code":"PH","country_name":"Philippines","state_code":"MSR","type":"province","latitude":"8.50455580","longitude":"124.62195920","name_ar":"Misamis Oriental"},{"id":1353,"name":"Mountain Province","country_id":174,"country_code":"PH","country_name":"Philippines","state_code":"MOU","type":"province","latitude":"40.70754370","longitude":"-73.95010330","name_ar":"Mountain Province"},{"id":1351,"name":"Negros Occidental","country_id":174,"country_code":"PH","country_name":"Philippines","state_code":"NEC","type":"province","latitude":"10.29256090","longitude":"123.02465180","name_ar":"Negros Occidental"},{"id":1350,"name":"Negros Oriental","country_id":174,"country_code":"PH","country_name":"Philippines","state_code":"NER","type":"province","latitude":"9.62820830","longitude":"122.98883190","name_ar":"Negros Oriental"},{"id":1339,"name":"Northern Mindanao","country_id":174,"country_code":"PH","country_name":"Philippines","state_code":"10","type":"region","latitude":"8.02016350","longitude":"124.68565090","name_ar":"Northern Mindanao"},{"id":1349,"name":"Northern Samar","country_id":174,"country_code":"PH","country_name":"Philippines","state_code":"NSA","type":"province","latitude":"12.36131990","longitude":"124.77407930","name_ar":"Northern Samar"},{"id":1360,"name":"Nueva Ecija","country_id":174,"country_code":"PH","country_name":"Philippines","state_code":"NUE","type":"province","latitude":"15.57837500","longitude":"121.11126150","name_ar":"Nueva Ecija"},{"id":1358,"name":"Nueva Vizcaya","country_id":174,"country_code":"PH","country_name":"Philippines","state_code":"NUV","type":"province","latitude":"16.33011070","longitude":"121.17103890","name_ar":"Nueva Vizcaya"},{"id":1356,"name":"Occidental Mindoro","country_id":174,"country_code":"PH","country_name":"Philippines","state_code":"MDC","type":"province","latitude":"13.10241110","longitude":"120.76512840","name_ar":"Occidental Mindoro"},{"id":1354,"name":"Oriental Mindoro","country_id":174,"country_code":"PH","country_name":"Philippines","state_code":"MDR","type":"province","latitude":"13.05645980","longitude":"121.40694170","name_ar":"Oriental Mindoro"},{"id":1361,"name":"Palawan","country_id":174,"country_code":"PH","country_name":"Philippines","state_code":"PLW","type":"province","latitude":"9.83494930","longitude":"118.73836150","name_ar":"Palawan"},{"id":1365,"name":"Pampanga","country_id":174,"country_code":"PH","country_name":"Philippines","state_code":"PAM","type":"province","latitude":"15.07940900","longitude":"120.61998950","name_ar":"Pampanga"},{"id":1364,"name":"Pangasinan","country_id":174,"country_code":"PH","country_name":"Philippines","state_code":"PAN","type":"province","latitude":"15.89490550","longitude":"120.28631830","name_ar":"Pangasinan"},{"id":1275,"name":"Quezon","country_id":174,"country_code":"PH","country_name":"Philippines","state_code":"QUE","type":"province","latitude":"14.03139060","longitude":"122.11309090","name_ar":"Quezon"},{"id":1273,"name":"Quirino","country_id":174,"country_code":"PH","country_name":"Philippines","state_code":"QUI","type":"province","latitude":"16.27004240","longitude":"121.53700030","name_ar":"Quirino"},{"id":1271,"name":"Rizal","country_id":174,"country_code":"PH","country_name":"Philippines","state_code":"RIZ","type":"province","latitude":"14.60374460","longitude":"121.30840880","name_ar":"Rizal"},{"id":1269,"name":"Romblon","country_id":174,"country_code":"PH","country_name":"Philippines","state_code":"ROM","type":"province","latitude":"12.57780160","longitude":"122.26914600","name_ar":"Romblon"},{"id":1277,"name":"Sarangani","country_id":174,"country_code":"PH","country_name":"Philippines","state_code":"SAR","type":"province","latitude":"5.92671750","longitude":"124.99475100","name_ar":"Sarangani"},{"id":1276,"name":"Siquijor","country_id":174,"country_code":"PH","country_name":"Philippines","state_code":"SIG","type":"province","latitude":"9.19987790","longitude":"123.59519250","name_ar":"Siquijor"},{"id":1310,"name":"Soccsksargen","country_id":174,"country_code":"PH","country_name":"Philippines","state_code":"12","type":"region","latitude":"6.27069180","longitude":"124.68565090","name_ar":"Soccsksargen"},{"id":1281,"name":"Sorsogon","country_id":174,"country_code":"PH","country_name":"Philippines","state_code":"SOR","type":"province","latitude":"12.99270950","longitude":"124.01474640","name_ar":"Sorsogon"},{"id":1280,"name":"South Cotabato","country_id":174,"country_code":"PH","country_name":"Philippines","state_code":"SCO","type":"province","latitude":"6.33575650","longitude":"124.77407930","name_ar":"South Cotabato"},{"id":1284,"name":"Southern Leyte","country_id":174,"country_code":"PH","country_name":"Philippines","state_code":"SLE","type":"province","latitude":"10.33462060","longitude":"125.17087410","name_ar":"Southern Leyte"},{"id":1282,"name":"Sultan Kudarat","country_id":174,"country_code":"PH","country_name":"Philippines","state_code":"SUK","type":"province","latitude":"6.50694010","longitude":"124.41982430","name_ar":"Sultan Kudarat"},{"id":1288,"name":"Sulu","country_id":174,"country_code":"PH","country_name":"Philippines","state_code":"SLU","type":"province","latitude":"5.97490110","longitude":"121.03351000","name_ar":"Sulu"},{"id":1286,"name":"Surigao del Norte","country_id":174,"country_code":"PH","country_name":"Philippines","state_code":"SUN","type":"province","latitude":"9.51482800","longitude":"125.69699840","name_ar":"Surigao del Norte"},{"id":1296,"name":"Surigao del Sur","country_id":174,"country_code":"PH","country_name":"Philippines","state_code":"SUR","type":"province","latitude":"8.54049060","longitude":"126.11447580","name_ar":"Surigao del Sur"},{"id":1295,"name":"Tarlac","country_id":174,"country_code":"PH","country_name":"Philippines","state_code":"TAR","type":"province","latitude":"15.47547860","longitude":"120.59634920","name_ar":"Tarlac"},{"id":1293,"name":"Tawi-Tawi","country_id":174,"country_code":"PH","country_name":"Philippines","state_code":"TAW","type":"province","latitude":"5.13381100","longitude":"119.95092600","name_ar":"Tawi-Tawi"},{"id":5115,"name":"Western Samar","country_id":174,"country_code":"PH","country_name":"Philippines","state_code":"WSA","type":"province","latitude":"12.00002060","longitude":"124.99124520","name_ar":"Western Samar"},{"id":1305,"name":"Western Visayas","country_id":174,"country_code":"PH","country_name":"Philippines","state_code":"06","type":"region","latitude":"11.00498360","longitude":"122.53727410","name_ar":"Western Visayas"},{"id":1297,"name":"Zambales","country_id":174,"country_code":"PH","country_name":"Philippines","state_code":"ZMB","type":"province","latitude":"15.50817660","longitude":"119.96978080","name_ar":"Zambales"},{"id":1302,"name":"Zamboanga del Norte","country_id":174,"country_code":"PH","country_name":"Philippines","state_code":"ZAN","type":"province","latitude":"8.38862820","longitude":"123.16888830","name_ar":"Zamboanga del Norte"},{"id":1357,"name":"Zamboanga del Sur","country_id":174,"country_code":"PH","country_name":"Philippines","state_code":"ZAS","type":"province","latitude":"7.83830540","longitude":"123.29666570","name_ar":"Zamboanga del Sur"},{"id":1325,"name":"Zamboanga Peninsula","country_id":174,"country_code":"PH","country_name":"Philippines","state_code":"09","type":"region","latitude":"8.15407700","longitude":"123.25879300","name_ar":"Zamboanga Peninsula"},{"id":1362,"name":"Zamboanga Sibugay","country_id":174,"country_code":"PH","country_name":"Philippines","state_code":"ZSI","type":"province","latitude":"7.52252470","longitude":"122.31075170","name_ar":"Zamboanga Sibugay"}]