[{"id":4724,"name":"Alba","country_id":181,"country_code":"RO","country_name":"Romania","state_code":"AB","type":null,"latitude":"44.70091530","longitude":"8.03569110","name_ar":"Alba"},{"id":4739,"name":"Arad County","country_id":181,"country_code":"RO","country_name":"Romania","state_code":"AR","type":null,"latitude":"46.22836510","longitude":"21.65978190","name_ar":"Arad County"},{"id":4722,"name":"Arges","country_id":181,"country_code":"RO","country_name":"Romania","state_code":"AG","type":null,"latitude":"45.07225270","longitude":"24.81427260","name_ar":"Arges"},{"id":4744,"name":"Bac\u0103u County","country_id":181,"country_code":"RO","country_name":"Romania","state_code":"BC","type":null,"latitude":"46.32581840","longitude":"26.66237800","name_ar":"Bac\u0103u County"},{"id":4723,"name":"Bihor County","country_id":181,"country_code":"RO","country_name":"Romania","state_code":"BH","type":null,"latitude":"47.01575160","longitude":"22.17226600","name_ar":"Bihor County"},{"id":4733,"name":"Bistri\u021ba-N\u0103s\u0103ud County","country_id":181,"country_code":"RO","country_name":"Romania","state_code":"BN","type":null,"latitude":"47.24861070","longitude":"24.53228140","name_ar":"Bistri\u021ba-N\u0103s\u0103ud County"},{"id":4740,"name":"Boto\u0219ani County","country_id":181,"country_code":"RO","country_name":"Romania","state_code":"BT","type":null,"latitude":"47.89240420","longitude":"26.75917810","name_ar":"Boto\u0219ani County"},{"id":4736,"name":"Braila","country_id":181,"country_code":"RO","country_name":"Romania","state_code":"BR","type":null,"latitude":"45.26524630","longitude":"27.95947140","name_ar":"Braila"},{"id":4759,"name":"Bra\u0219ov County","country_id":181,"country_code":"RO","country_name":"Romania","state_code":"BV","type":null,"latitude":"45.77818440","longitude":"25.22258000","name_ar":"Bra\u0219ov County"},{"id":4730,"name":"Bucharest","country_id":181,"country_code":"RO","country_name":"Romania","state_code":"B","type":null,"latitude":"44.42676740","longitude":"26.10253840","name_ar":"Bucharest"},{"id":4756,"name":"Buz\u0103u County","country_id":181,"country_code":"RO","country_name":"Romania","state_code":"BZ","type":null,"latitude":"45.33509120","longitude":"26.71075780","name_ar":"Buz\u0103u County"},{"id":4732,"name":"C\u0103l\u0103ra\u0219i County","country_id":181,"country_code":"RO","country_name":"Romania","state_code":"CL","type":null,"latitude":"44.36587150","longitude":"26.75486070","name_ar":"C\u0103l\u0103ra\u0219i County"},{"id":4753,"name":"Cara\u0219-Severin County","country_id":181,"country_code":"RO","country_name":"Romania","state_code":"CS","type":null,"latitude":"45.11396460","longitude":"22.07409930","name_ar":"Cara\u0219-Severin County"},{"id":4734,"name":"Cluj County","country_id":181,"country_code":"RO","country_name":"Romania","state_code":"CJ","type":null,"latitude":"46.79417970","longitude":"23.61214920","name_ar":"Cluj County"},{"id":4737,"name":"Constan\u021ba County","country_id":181,"country_code":"RO","country_name":"Romania","state_code":"CT","type":null,"latitude":"44.21298700","longitude":"28.25500550","name_ar":"Constan\u021ba County"},{"id":4754,"name":"Covasna County","country_id":181,"country_code":"RO","country_name":"Romania","state_code":"CV","type":null,"latitude":"45.94263470","longitude":"25.89189840","name_ar":"Covasna County"},{"id":4745,"name":"D\u00e2mbovi\u021ba County","country_id":181,"country_code":"RO","country_name":"Romania","state_code":"DB","type":null,"latitude":"44.92898930","longitude":"25.42538500","name_ar":"D\u00e2mbovi\u021ba County"},{"id":4742,"name":"Dolj County","country_id":181,"country_code":"RO","country_name":"Romania","state_code":"DJ","type":null,"latitude":"44.16230220","longitude":"23.63250540","name_ar":"Dolj County"},{"id":4747,"name":"Gala\u021bi County","country_id":181,"country_code":"RO","country_name":"Romania","state_code":"GL","type":null,"latitude":"45.78005690","longitude":"27.82515760","name_ar":"Gala\u021bi County"},{"id":4726,"name":"Giurgiu County","country_id":181,"country_code":"RO","country_name":"Romania","state_code":"GR","type":null,"latitude":"43.90370760","longitude":"25.96992650","name_ar":"Giurgiu County"},{"id":4750,"name":"Gorj County","country_id":181,"country_code":"RO","country_name":"Romania","state_code":"GJ","type":null,"latitude":"44.94855950","longitude":"23.24270790","name_ar":"Gorj County"},{"id":4749,"name":"Harghita County","country_id":181,"country_code":"RO","country_name":"Romania","state_code":"HR","type":null,"latitude":"46.49285070","longitude":"25.64566960","name_ar":"Harghita County"},{"id":4721,"name":"Hunedoara County","country_id":181,"country_code":"RO","country_name":"Romania","state_code":"HD","type":null,"latitude":"45.79363800","longitude":"22.99759930","name_ar":"Hunedoara County"},{"id":4743,"name":"Ialomi\u021ba County","country_id":181,"country_code":"RO","country_name":"Romania","state_code":"IL","type":null,"latitude":"44.60313300","longitude":"27.37899140","name_ar":"Ialomi\u021ba County"},{"id":4735,"name":"Ia\u0219i County","country_id":181,"country_code":"RO","country_name":"Romania","state_code":"IS","type":null,"latitude":"47.26796530","longitude":"27.21856620","name_ar":"Ia\u0219i County"},{"id":4725,"name":"Ilfov County","country_id":181,"country_code":"RO","country_name":"Romania","state_code":"IF","type":null,"latitude":"44.53554800","longitude":"26.23248860","name_ar":"Ilfov County"},{"id":4760,"name":"Maramure\u0219 County","country_id":181,"country_code":"RO","country_name":"Romania","state_code":"MM","type":null,"latitude":"46.55699040","longitude":"24.67232150","name_ar":"Maramure\u0219 County"},{"id":4751,"name":"Mehedin\u021bi County","country_id":181,"country_code":"RO","country_name":"Romania","state_code":"MH","type":null,"latitude":"44.55150530","longitude":"22.90441570","name_ar":"Mehedin\u021bi County"},{"id":4915,"name":"Mure\u0219 County","country_id":181,"country_code":"RO","country_name":"Romania","state_code":"MS","type":null,"latitude":"46.55699040","longitude":"24.67232150","name_ar":"Mure\u0219 County"},{"id":4731,"name":"Neam\u021b County","country_id":181,"country_code":"RO","country_name":"Romania","state_code":"NT","type":null,"latitude":"46.97586850","longitude":"26.38187640","name_ar":"Neam\u021b County"},{"id":4738,"name":"Olt County","country_id":181,"country_code":"RO","country_name":"Romania","state_code":"OT","type":null,"latitude":"44.20079700","longitude":"24.50229810","name_ar":"Olt County"},{"id":4729,"name":"Prahova County","country_id":181,"country_code":"RO","country_name":"Romania","state_code":"PH","type":null,"latitude":"45.08919060","longitude":"26.08293130","name_ar":"Prahova County"},{"id":4741,"name":"S\u0103laj County","country_id":181,"country_code":"RO","country_name":"Romania","state_code":"SJ","type":null,"latitude":"47.20908130","longitude":"23.21219010","name_ar":"S\u0103laj County"},{"id":4746,"name":"Satu Mare County","country_id":181,"country_code":"RO","country_name":"Romania","state_code":"SM","type":null,"latitude":"47.76689050","longitude":"22.92413770","name_ar":"Satu Mare County"},{"id":4755,"name":"Sibiu County","country_id":181,"country_code":"RO","country_name":"Romania","state_code":"SB","type":null,"latitude":"45.92691060","longitude":"24.22548070","name_ar":"Sibiu County"},{"id":4720,"name":"Suceava County","country_id":181,"country_code":"RO","country_name":"Romania","state_code":"SV","type":null,"latitude":"47.55055480","longitude":"25.74106200","name_ar":"Suceava County"},{"id":4728,"name":"Teleorman County","country_id":181,"country_code":"RO","country_name":"Romania","state_code":"TR","type":null,"latitude":"44.01604910","longitude":"25.29866280","name_ar":"Teleorman County"},{"id":4748,"name":"Timi\u0219 County","country_id":181,"country_code":"RO","country_name":"Romania","state_code":"TM","type":null,"latitude":"45.81389020","longitude":"21.33310550","name_ar":"Timi\u0219 County"},{"id":4727,"name":"Tulcea County","country_id":181,"country_code":"RO","country_name":"Romania","state_code":"TL","type":null,"latitude":"45.04505650","longitude":"29.03249120","name_ar":"Tulcea County"},{"id":4757,"name":"V\u00e2lcea County","country_id":181,"country_code":"RO","country_name":"Romania","state_code":"VL","type":null,"latitude":"45.07980510","longitude":"24.08352830","name_ar":"V\u00e2lcea County"},{"id":4752,"name":"Vaslui County","country_id":181,"country_code":"RO","country_name":"Romania","state_code":"VS","type":null,"latitude":"46.46310590","longitude":"27.73980310","name_ar":"Vaslui County"},{"id":4758,"name":"Vrancea County","country_id":181,"country_code":"RO","country_name":"Romania","state_code":"VN","type":null,"latitude":"45.81348760","longitude":"27.06575310","name_ar":"Vrancea County"}]