[{"id":4183,"name":"Ajdov\u0161\u010dina Municipality","country_id":201,"country_code":"SI","country_name":"Slovenia","state_code":"001","type":null,"latitude":"45.88707760","longitude":"13.90428180","name_ar":"Ajdov\u0161\u010dina Municipality"},{"id":4326,"name":"Ankaran Municipality","country_id":201,"country_code":"SI","country_name":"Slovenia","state_code":"213","type":null,"latitude":"45.57845100","longitude":"13.73691740","name_ar":"Ankaran Municipality"},{"id":4301,"name":"Beltinci Municipality","country_id":201,"country_code":"SI","country_name":"Slovenia","state_code":"002","type":null,"latitude":"46.60791530","longitude":"16.23651270","name_ar":"Beltinci Municipality"},{"id":4166,"name":"Benedikt Municipality","country_id":201,"country_code":"SI","country_name":"Slovenia","state_code":"148","type":null,"latitude":"46.61558410","longitude":"15.89572810","name_ar":"Benedikt Municipality"},{"id":4179,"name":"Bistrica ob Sotli Municipality","country_id":201,"country_code":"SI","country_name":"Slovenia","state_code":"149","type":null,"latitude":"46.05655790","longitude":"15.66259470","name_ar":"Bistrica ob Sotli Municipality"},{"id":4202,"name":"Bled Municipality","country_id":201,"country_code":"SI","country_name":"Slovenia","state_code":"003","type":null,"latitude":"46.36832660","longitude":"14.11457980","name_ar":"Bled Municipality"},{"id":4278,"name":"Bloke Municipality","country_id":201,"country_code":"SI","country_name":"Slovenia","state_code":"150","type":null,"latitude":"45.77281410","longitude":"14.50634590","name_ar":"Bloke Municipality"},{"id":4282,"name":"Bohinj Municipality","country_id":201,"country_code":"SI","country_name":"Slovenia","state_code":"004","type":null,"latitude":"46.30056520","longitude":"13.94271950","name_ar":"Bohinj Municipality"},{"id":4200,"name":"Borovnica Municipality","country_id":201,"country_code":"SI","country_name":"Slovenia","state_code":"005","type":null,"latitude":"45.90445250","longitude":"14.38241890","name_ar":"Borovnica Municipality"},{"id":4181,"name":"Bovec Municipality","country_id":201,"country_code":"SI","country_name":"Slovenia","state_code":"006","type":null,"latitude":"46.33804950","longitude":"13.55241740","name_ar":"Bovec Municipality"},{"id":4141,"name":"Braslov\u010de Municipality","country_id":201,"country_code":"SI","country_name":"Slovenia","state_code":"151","type":null,"latitude":"46.28361920","longitude":"15.04183200","name_ar":"Braslov\u010de Municipality"},{"id":4240,"name":"Brda Municipality","country_id":201,"country_code":"SI","country_name":"Slovenia","state_code":"007","type":null,"latitude":"45.99756520","longitude":"13.52704740","name_ar":"Brda Municipality"},{"id":4215,"name":"Bre\u017eice Municipality","country_id":201,"country_code":"SI","country_name":"Slovenia","state_code":"009","type":null,"latitude":"45.90410960","longitude":"15.59436390","name_ar":"Bre\u017eice Municipality"},{"id":4165,"name":"Brezovica Municipality","country_id":201,"country_code":"SI","country_name":"Slovenia","state_code":"008","type":null,"latitude":"45.95593510","longitude":"14.43499520","name_ar":"Brezovica Municipality"},{"id":4147,"name":"Cankova Municipality","country_id":201,"country_code":"SI","country_name":"Slovenia","state_code":"152","type":null,"latitude":"46.71823700","longitude":"16.01972220","name_ar":"Cankova Municipality"},{"id":4310,"name":"Cerklje na Gorenjskem Municipality","country_id":201,"country_code":"SI","country_name":"Slovenia","state_code":"012","type":null,"latitude":"46.25170540","longitude":"14.48579790","name_ar":"Cerklje na Gorenjskem Municipality"},{"id":4162,"name":"Cerknica Municipality","country_id":201,"country_code":"SI","country_name":"Slovenia","state_code":"013","type":null,"latitude":"45.79662550","longitude":"14.39217700","name_ar":"Cerknica Municipality"},{"id":4178,"name":"Cerkno Municipality","country_id":201,"country_code":"SI","country_name":"Slovenia","state_code":"014","type":null,"latitude":"46.12884140","longitude":"13.98940270","name_ar":"Cerkno Municipality"},{"id":4176,"name":"Cerkvenjak Municipality","country_id":201,"country_code":"SI","country_name":"Slovenia","state_code":"153","type":null,"latitude":"46.56707110","longitude":"15.94297530","name_ar":"Cerkvenjak Municipality"},{"id":4191,"name":"City Municipality of Celje","country_id":201,"country_code":"SI","country_name":"Slovenia","state_code":"011","type":null,"latitude":"46.23974950","longitude":"15.26770630","name_ar":"City Municipality of Celje"},{"id":4236,"name":"City Municipality of Novo Mesto","country_id":201,"country_code":"SI","country_name":"Slovenia","state_code":"085","type":null,"latitude":"45.80108240","longitude":"15.17100890","name_ar":"City Municipality of Novo Mesto"},{"id":4151,"name":"\u010cren\u0161ovci Municipality","country_id":201,"country_code":"SI","country_name":"Slovenia","state_code":"015","type":null,"latitude":"46.57200290","longitude":"16.28773460","name_ar":"\u010cren\u0161ovci Municipality"},{"id":4232,"name":"\u010crna na Koro\u0161kem Municipality","country_id":201,"country_code":"SI","country_name":"Slovenia","state_code":"016","type":null,"latitude":"46.47045290","longitude":"14.84999980","name_ar":"\u010crna na Koro\u0161kem Municipality"},{"id":4291,"name":"\u010crnomelj Municipality","country_id":201,"country_code":"SI","country_name":"Slovenia","state_code":"017","type":null,"latitude":"45.53612250","longitude":"15.19441430","name_ar":"\u010crnomelj Municipality"},{"id":4304,"name":"Destrnik Municipality","country_id":201,"country_code":"SI","country_name":"Slovenia","state_code":"018","type":null,"latitude":"46.49223680","longitude":"15.87779560","name_ar":"Destrnik Municipality"},{"id":4167,"name":"Diva\u010da Municipality","country_id":201,"country_code":"SI","country_name":"Slovenia","state_code":"019","type":null,"latitude":"45.68060690","longitude":"13.97203120","name_ar":"Diva\u010da Municipality"},{"id":4295,"name":"Dobje Municipality","country_id":201,"country_code":"SI","country_name":"Slovenia","state_code":"154","type":null,"latitude":"46.13700370","longitude":"15.39412900","name_ar":"Dobje Municipality"},{"id":4216,"name":"Dobrepolje Municipality","country_id":201,"country_code":"SI","country_name":"Slovenia","state_code":"020","type":null,"latitude":"45.85249510","longitude":"14.70831090","name_ar":"Dobrepolje Municipality"},{"id":4252,"name":"Dobrna Municipality","country_id":201,"country_code":"SI","country_name":"Slovenia","state_code":"155","type":null,"latitude":"46.33561410","longitude":"15.22597320","name_ar":"Dobrna Municipality"},{"id":4308,"name":"Dobrova\u2013Polhov Gradec Municipality","country_id":201,"country_code":"SI","country_name":"Slovenia","state_code":"021","type":null,"latitude":"46.06488960","longitude":"14.31681950","name_ar":"Dobrova\u2013Polhov Gradec Municipality"},{"id":4189,"name":"Dobrovnik Municipality","country_id":201,"country_code":"SI","country_name":"Slovenia","state_code":"156","type":null,"latitude":"46.65386620","longitude":"16.35065940","name_ar":"Dobrovnik Municipality"},{"id":4173,"name":"Dol pri Ljubljani Municipality","country_id":201,"country_code":"SI","country_name":"Slovenia","state_code":"022","type":null,"latitude":"46.08843860","longitude":"14.64247920","name_ar":"Dol pri Ljubljani Municipality"},{"id":4281,"name":"Dolenjske Toplice Municipality","country_id":201,"country_code":"SI","country_name":"Slovenia","state_code":"157","type":null,"latitude":"45.73457110","longitude":"15.01294930","name_ar":"Dolenjske Toplice Municipality"},{"id":4159,"name":"Dom\u017eale Municipality","country_id":201,"country_code":"SI","country_name":"Slovenia","state_code":"023","type":null,"latitude":"46.14382690","longitude":"14.63752790","name_ar":"Dom\u017eale Municipality"},{"id":4290,"name":"Dornava Municipality","country_id":201,"country_code":"SI","country_name":"Slovenia","state_code":"024","type":null,"latitude":"46.44435130","longitude":"15.98891590","name_ar":"Dornava Municipality"},{"id":4345,"name":"Dravograd Municipality","country_id":201,"country_code":"SI","country_name":"Slovenia","state_code":"025","type":null,"latitude":"46.58921900","longitude":"15.02460210","name_ar":"Dravograd Municipality"},{"id":4213,"name":"Duplek Municipality","country_id":201,"country_code":"SI","country_name":"Slovenia","state_code":"026","type":null,"latitude":"46.50100160","longitude":"15.75463070","name_ar":"Duplek Municipality"},{"id":4293,"name":"Gorenja Vas\u2013Poljane Municipality","country_id":201,"country_code":"SI","country_name":"Slovenia","state_code":"027","type":null,"latitude":"46.11165820","longitude":"14.11493480","name_ar":"Gorenja Vas\u2013Poljane Municipality"},{"id":4210,"name":"Gori\u0161nica Municipality","country_id":201,"country_code":"SI","country_name":"Slovenia","state_code":"028","type":null,"latitude":"46.41202710","longitude":"16.01330890","name_ar":"Gori\u0161nica Municipality"},{"id":4284,"name":"Gorje Municipality","country_id":201,"country_code":"SI","country_name":"Slovenia","state_code":"207","type":null,"latitude":"46.38024580","longitude":"14.06853390","name_ar":"Gorje Municipality"},{"id":4343,"name":"Gornja Radgona Municipality","country_id":201,"country_code":"SI","country_name":"Slovenia","state_code":"029","type":null,"latitude":"46.67670990","longitude":"15.99108470","name_ar":"Gornja Radgona Municipality"},{"id":4339,"name":"Gornji Grad Municipality","country_id":201,"country_code":"SI","country_name":"Slovenia","state_code":"030","type":null,"latitude":"46.29617120","longitude":"14.80623470","name_ar":"Gornji Grad Municipality"},{"id":4271,"name":"Gornji Petrovci Municipality","country_id":201,"country_code":"SI","country_name":"Slovenia","state_code":"031","type":null,"latitude":"46.80371280","longitude":"16.21913790","name_ar":"Gornji Petrovci Municipality"},{"id":4217,"name":"Grad Municipality","country_id":201,"country_code":"SI","country_name":"Slovenia","state_code":"158","type":null,"latitude":"46.80873200","longitude":"16.10920600","name_ar":"Grad Municipality"},{"id":4336,"name":"Grosuplje Municipality","country_id":201,"country_code":"SI","country_name":"Slovenia","state_code":"032","type":null,"latitude":"45.95576450","longitude":"14.65889900","name_ar":"Grosuplje Municipality"},{"id":4145,"name":"Hajdina Municipality","country_id":201,"country_code":"SI","country_name":"Slovenia","state_code":"159","type":null,"latitude":"46.41850140","longitude":"15.82447220","name_ar":"Hajdina Municipality"},{"id":4175,"name":"Ho\u010de\u2013Slivnica Municipality","country_id":201,"country_code":"SI","country_name":"Slovenia","state_code":"160","type":null,"latitude":"46.47785800","longitude":"15.64760050","name_ar":"Ho\u010de\u2013Slivnica Municipality"},{"id":4327,"name":"Hodo\u0161 Municipality","country_id":201,"country_code":"SI","country_name":"Slovenia","state_code":"161","type":null,"latitude":"46.83141340","longitude":"16.32106800","name_ar":"Hodo\u0161 Municipality"},{"id":4193,"name":"Horjul Municipality","country_id":201,"country_code":"SI","country_name":"Slovenia","state_code":"162","type":null,"latitude":"46.02253780","longitude":"14.29862690","name_ar":"Horjul Municipality"},{"id":4341,"name":"Hrastnik Municipality","country_id":201,"country_code":"SI","country_name":"Slovenia","state_code":"034","type":null,"latitude":"46.14172880","longitude":"15.08448940","name_ar":"Hrastnik Municipality"},{"id":4321,"name":"Hrpelje\u2013Kozina Municipality","country_id":201,"country_code":"SI","country_name":"Slovenia","state_code":"035","type":null,"latitude":"45.60911920","longitude":"13.93791480","name_ar":"Hrpelje\u2013Kozina Municipality"},{"id":4152,"name":"Idrija Municipality","country_id":201,"country_code":"SI","country_name":"Slovenia","state_code":"036","type":null,"latitude":"46.00409390","longitude":"13.97754930","name_ar":"Idrija Municipality"},{"id":4286,"name":"Ig Municipality","country_id":201,"country_code":"SI","country_name":"Slovenia","state_code":"037","type":null,"latitude":"45.95888680","longitude":"14.52705280","name_ar":"Ig Municipality"},{"id":4305,"name":"Ivan\u010dna Gorica Municipality","country_id":201,"country_code":"SI","country_name":"Slovenia","state_code":"039","type":null,"latitude":"45.93958410","longitude":"14.80476260","name_ar":"Ivan\u010dna Gorica Municipality"},{"id":4322,"name":"Izola Municipality","country_id":201,"country_code":"SI","country_name":"Slovenia","state_code":"040","type":null,"latitude":"45.53135570","longitude":"13.66646490","name_ar":"Izola Municipality"},{"id":4337,"name":"Jesenice Municipality","country_id":201,"country_code":"SI","country_name":"Slovenia","state_code":"041","type":null,"latitude":"46.43670470","longitude":"14.05260570","name_ar":"Jesenice Municipality"},{"id":4203,"name":"Jezersko Municipality","country_id":201,"country_code":"SI","country_name":"Slovenia","state_code":"163","type":null,"latitude":"46.39427940","longitude":"14.49855590","name_ar":"Jezersko Municipality"},{"id":4266,"name":"Jur\u0161inci Municipality","country_id":201,"country_code":"SI","country_name":"Slovenia","state_code":"042","type":null,"latitude":"46.48986510","longitude":"15.98092300","name_ar":"Jur\u0161inci Municipality"},{"id":4180,"name":"Kamnik Municipality","country_id":201,"country_code":"SI","country_name":"Slovenia","state_code":"043","type":null,"latitude":"46.22216660","longitude":"14.60707270","name_ar":"Kamnik Municipality"},{"id":4227,"name":"Kanal ob So\u010di Municipality","country_id":201,"country_code":"SI","country_name":"Slovenia","state_code":"044","type":null,"latitude":"46.06735300","longitude":"13.62033500","name_ar":"Kanal ob So\u010di Municipality"},{"id":4150,"name":"Kidri\u010devo Municipality","country_id":201,"country_code":"SI","country_name":"Slovenia","state_code":"045","type":null,"latitude":"46.39575720","longitude":"15.79259060","name_ar":"Kidri\u010devo Municipality"},{"id":4243,"name":"Kobarid Municipality","country_id":201,"country_code":"SI","country_name":"Slovenia","state_code":"046","type":null,"latitude":"46.24569710","longitude":"13.57869490","name_ar":"Kobarid Municipality"},{"id":4325,"name":"Kobilje Municipality","country_id":201,"country_code":"SI","country_name":"Slovenia","state_code":"047","type":null,"latitude":"46.68518000","longitude":"16.39367190","name_ar":"Kobilje Municipality"},{"id":4335,"name":"Ko\u010devje Municipality","country_id":201,"country_code":"SI","country_name":"Slovenia","state_code":"048","type":null,"latitude":"45.64280000","longitude":"14.86158380","name_ar":"Ko\u010devje Municipality"},{"id":4315,"name":"Komen Municipality","country_id":201,"country_code":"SI","country_name":"Slovenia","state_code":"049","type":null,"latitude":"45.81752350","longitude":"13.74827110","name_ar":"Komen Municipality"},{"id":4283,"name":"Komenda Municipality","country_id":201,"country_code":"SI","country_name":"Slovenia","state_code":"164","type":null,"latitude":"46.20648800","longitude":"14.53824990","name_ar":"Komenda Municipality"},{"id":4319,"name":"Koper City Municipality","country_id":201,"country_code":"SI","country_name":"Slovenia","state_code":"050","type":null,"latitude":"45.54805900","longitude":"13.73018770","name_ar":"Koper City Municipality"},{"id":4254,"name":"Kostanjevica na Krki Municipality","country_id":201,"country_code":"SI","country_name":"Slovenia","state_code":"197","type":null,"latitude":"45.83166380","longitude":"15.44119060","name_ar":"Kostanjevica na Krki Municipality"},{"id":4331,"name":"Kostel Municipality","country_id":201,"country_code":"SI","country_name":"Slovenia","state_code":"165","type":null,"latitude":"45.49282550","longitude":"14.87082350","name_ar":"Kostel Municipality"},{"id":4186,"name":"Kozje Municipality","country_id":201,"country_code":"SI","country_name":"Slovenia","state_code":"051","type":null,"latitude":"46.07332110","longitude":"15.55967190","name_ar":"Kozje Municipality"},{"id":4287,"name":"Kranj City Municipality","country_id":201,"country_code":"SI","country_name":"Slovenia","state_code":"052","type":null,"latitude":"46.25850210","longitude":"14.35435690","name_ar":"Kranj City Municipality"},{"id":4340,"name":"Kranjska Gora Municipality","country_id":201,"country_code":"SI","country_name":"Slovenia","state_code":"053","type":null,"latitude":"46.48452930","longitude":"13.78571450","name_ar":"Kranjska Gora Municipality"},{"id":4238,"name":"Kri\u017eevci Municipality","country_id":201,"country_code":"SI","country_name":"Slovenia","state_code":"166","type":null,"latitude":"46.57018210","longitude":"16.10926530","name_ar":"Kri\u017eevci Municipality"},{"id":4197,"name":"Kungota","country_id":201,"country_code":"SI","country_name":"Slovenia","state_code":"055","type":null,"latitude":"46.64187930","longitude":"15.60362880","name_ar":"Kungota"},{"id":4211,"name":"Kuzma Municipality","country_id":201,"country_code":"SI","country_name":"Slovenia","state_code":"056","type":null,"latitude":"46.83510380","longitude":"16.08071000","name_ar":"Kuzma Municipality"},{"id":4338,"name":"La\u0161ko Municipality","country_id":201,"country_code":"SI","country_name":"Slovenia","state_code":"057","type":null,"latitude":"46.15422360","longitude":"15.23614910","name_ar":"La\u0161ko Municipality"},{"id":4142,"name":"Lenart Municipality","country_id":201,"country_code":"SI","country_name":"Slovenia","state_code":"058","type":null,"latitude":"46.58344240","longitude":"15.82621250","name_ar":"Lenart Municipality"},{"id":4225,"name":"Lendava Municipality","country_id":201,"country_code":"SI","country_name":"Slovenia","state_code":"059","type":null,"latitude":"46.55134830","longitude":"16.44198390","name_ar":"Lendava Municipality"},{"id":4347,"name":"Litija Municipality","country_id":201,"country_code":"SI","country_name":"Slovenia","state_code":"060","type":null,"latitude":"46.05732260","longitude":"14.83096360","name_ar":"Litija Municipality"},{"id":4270,"name":"Ljubljana City Municipality","country_id":201,"country_code":"SI","country_name":"Slovenia","state_code":"061","type":null,"latitude":"46.05694650","longitude":"14.50575150","name_ar":"Ljubljana City Municipality"},{"id":4294,"name":"Ljubno Municipality","country_id":201,"country_code":"SI","country_name":"Slovenia","state_code":"062","type":null,"latitude":"46.34431250","longitude":"14.83354920","name_ar":"Ljubno Municipality"},{"id":4351,"name":"Ljutomer Municipality","country_id":201,"country_code":"SI","country_name":"Slovenia","state_code":"063","type":null,"latitude":"46.51908480","longitude":"16.18932160","name_ar":"Ljutomer Municipality"},{"id":4306,"name":"Log\u2013Dragomer Municipality","country_id":201,"country_code":"SI","country_name":"Slovenia","state_code":"208","type":null,"latitude":"46.01787470","longitude":"14.36877670","name_ar":"Log\u2013Dragomer Municipality"},{"id":4350,"name":"Logatec Municipality","country_id":201,"country_code":"SI","country_name":"Slovenia","state_code":"064","type":null,"latitude":"45.91761100","longitude":"14.23514510","name_ar":"Logatec Municipality"},{"id":4174,"name":"Lo\u0161ka Dolina Municipality","country_id":201,"country_code":"SI","country_name":"Slovenia","state_code":"065","type":null,"latitude":"45.64779080","longitude":"14.49731470","name_ar":"Lo\u0161ka Dolina Municipality"},{"id":4158,"name":"Lo\u0161ki Potok Municipality","country_id":201,"country_code":"SI","country_name":"Slovenia","state_code":"066","type":null,"latitude":"45.69096370","longitude":"14.59859700","name_ar":"Lo\u0161ki Potok Municipality"},{"id":4156,"name":"Lovrenc na Pohorju Municipality","country_id":201,"country_code":"SI","country_name":"Slovenia","state_code":"167","type":null,"latitude":"46.54196380","longitude":"15.40004430","name_ar":"Lovrenc na Pohorju Municipality"},{"id":4219,"name":"Lu\u010de Municipality","country_id":201,"country_code":"SI","country_name":"Slovenia","state_code":"067","type":null,"latitude":"46.35449250","longitude":"14.74715040","name_ar":"Lu\u010de Municipality"},{"id":4302,"name":"Lukovica Municipality","country_id":201,"country_code":"SI","country_name":"Slovenia","state_code":"068","type":null,"latitude":"46.16962930","longitude":"14.69072590","name_ar":"Lukovica Municipality"},{"id":4157,"name":"Maj\u0161perk Municipality","country_id":201,"country_code":"SI","country_name":"Slovenia","state_code":"069","type":null,"latitude":"46.35030190","longitude":"15.73405950","name_ar":"Maj\u0161perk Municipality"},{"id":4224,"name":"Makole Municipality","country_id":201,"country_code":"SI","country_name":"Slovenia","state_code":"198","type":null,"latitude":"46.31686970","longitude":"15.66641260","name_ar":"Makole Municipality"},{"id":4242,"name":"Maribor City Municipality","country_id":201,"country_code":"SI","country_name":"Slovenia","state_code":"070","type":null,"latitude":"46.55064960","longitude":"15.62054390","name_ar":"Maribor City Municipality"},{"id":4244,"name":"Markovci Municipality","country_id":201,"country_code":"SI","country_name":"Slovenia","state_code":"168","type":null,"latitude":"46.38793090","longitude":"15.95860140","name_ar":"Markovci Municipality"},{"id":4349,"name":"Medvode Municipality","country_id":201,"country_code":"SI","country_name":"Slovenia","state_code":"071","type":null,"latitude":"46.14190800","longitude":"14.40325960","name_ar":"Medvode Municipality"},{"id":4348,"name":"Menge\u0161 Municipality","country_id":201,"country_code":"SI","country_name":"Slovenia","state_code":"072","type":null,"latitude":"46.16591220","longitude":"14.57196940","name_ar":"Menge\u0161 Municipality"},{"id":4323,"name":"Metlika Municipality","country_id":201,"country_code":"SI","country_name":"Slovenia","state_code":"073","type":null,"latitude":"45.64807150","longitude":"15.31778380","name_ar":"Metlika Municipality"},{"id":4265,"name":"Me\u017eica Municipality","country_id":201,"country_code":"SI","country_name":"Slovenia","state_code":"074","type":null,"latitude":"46.52150270","longitude":"14.85213400","name_ar":"Me\u017eica Municipality"},{"id":4223,"name":"Miklav\u017e na Dravskem Polju Municipality","country_id":201,"country_code":"SI","country_name":"Slovenia","state_code":"169","type":null,"latitude":"46.50826280","longitude":"15.69520650","name_ar":"Miklav\u017e na Dravskem Polju Municipality"},{"id":4220,"name":"Miren\u2013Kostanjevica Municipality","country_id":201,"country_code":"SI","country_name":"Slovenia","state_code":"075","type":null,"latitude":"45.84360290","longitude":"13.62766470","name_ar":"Miren\u2013Kostanjevica Municipality"},{"id":4298,"name":"Mirna Municipality","country_id":201,"country_code":"SI","country_name":"Slovenia","state_code":"212","type":null,"latitude":"45.95156470","longitude":"15.06209770","name_ar":"Mirna Municipality"},{"id":4237,"name":"Mirna Pe\u010d Municipality","country_id":201,"country_code":"SI","country_name":"Slovenia","state_code":"170","type":null,"latitude":"45.84815740","longitude":"15.08794500","name_ar":"Mirna Pe\u010d Municipality"},{"id":4212,"name":"Mislinja Municipality","country_id":201,"country_code":"SI","country_name":"Slovenia","state_code":"076","type":null,"latitude":"46.44294030","longitude":"15.19876780","name_ar":"Mislinja Municipality"},{"id":4297,"name":"Mokronog\u2013Trebelno Municipality","country_id":201,"country_code":"SI","country_name":"Slovenia","state_code":"199","type":null,"latitude":"45.90885290","longitude":"15.15967360","name_ar":"Mokronog\u2013Trebelno Municipality"},{"id":4168,"name":"Morav\u010de Municipality","country_id":201,"country_code":"SI","country_name":"Slovenia","state_code":"077","type":null,"latitude":"46.13627810","longitude":"14.74600100","name_ar":"Morav\u010de Municipality"},{"id":4218,"name":"Moravske Toplice Municipality","country_id":201,"country_code":"SI","country_name":"Slovenia","state_code":"078","type":null,"latitude":"46.68569320","longitude":"16.22245820","name_ar":"Moravske Toplice Municipality"},{"id":4190,"name":"Mozirje Municipality","country_id":201,"country_code":"SI","country_name":"Slovenia","state_code":"079","type":null,"latitude":"46.33943500","longitude":"14.96024130","name_ar":"Mozirje Municipality"},{"id":4318,"name":"Municipality of Apa\u010de","country_id":201,"country_code":"SI","country_name":"Slovenia","state_code":"195","type":null,"latitude":"46.69746790","longitude":"15.91025340","name_ar":"Municipality of Apa\u010de"},{"id":4309,"name":"Municipality of Cirkulane","country_id":201,"country_code":"SI","country_name":"Slovenia","state_code":"196","type":null,"latitude":"46.32983220","longitude":"15.99806660","name_ar":"Municipality of Cirkulane"},{"id":4344,"name":"Municipality of Ilirska Bistrica","country_id":201,"country_code":"SI","country_name":"Slovenia","state_code":"038","type":null,"latitude":"45.57913230","longitude":"14.28097290","name_ar":"Municipality of Ilirska Bistrica"},{"id":4314,"name":"Municipality of Kr\u0161ko","country_id":201,"country_code":"SI","country_name":"Slovenia","state_code":"054","type":null,"latitude":"45.95896090","longitude":"15.49235550","name_ar":"Municipality of Kr\u0161ko"},{"id":4187,"name":"Municipality of \u0160kofljica","country_id":201,"country_code":"SI","country_name":"Slovenia","state_code":"123","type":null,"latitude":"45.98409620","longitude":"14.57466260","name_ar":"Municipality of \u0160kofljica"},{"id":4313,"name":"Murska Sobota City Municipality","country_id":201,"country_code":"SI","country_name":"Slovenia","state_code":"080","type":null,"latitude":"46.64321470","longitude":"16.15157540","name_ar":"Murska Sobota City Municipality"},{"id":4208,"name":"Muta Municipality","country_id":201,"country_code":"SI","country_name":"Slovenia","state_code":"081","type":null,"latitude":"46.60973660","longitude":"15.16299950","name_ar":"Muta Municipality"},{"id":4177,"name":"Naklo Municipality","country_id":201,"country_code":"SI","country_name":"Slovenia","state_code":"082","type":null,"latitude":"46.27186630","longitude":"14.31569320","name_ar":"Naklo Municipality"},{"id":4329,"name":"Nazarje Municipality","country_id":201,"country_code":"SI","country_name":"Slovenia","state_code":"083","type":null,"latitude":"46.28217410","longitude":"14.92256290","name_ar":"Nazarje Municipality"},{"id":4205,"name":"Nova Gorica City Municipality","country_id":201,"country_code":"SI","country_name":"Slovenia","state_code":"084","type":null,"latitude":"45.97627600","longitude":"13.73088810","name_ar":"Nova Gorica City Municipality"},{"id":4320,"name":"Odranci Municipality","country_id":201,"country_code":"SI","country_name":"Slovenia","state_code":"086","type":null,"latitude":"46.59010170","longitude":"16.27881650","name_ar":"Odranci Municipality"},{"id":4143,"name":"Oplotnica","country_id":201,"country_code":"SI","country_name":"Slovenia","state_code":"171","type":null,"latitude":"46.38716300","longitude":"15.44581310","name_ar":"Oplotnica"},{"id":4221,"name":"Ormo\u017e Municipality","country_id":201,"country_code":"SI","country_name":"Slovenia","state_code":"087","type":null,"latitude":"46.43533330","longitude":"16.15437400","name_ar":"Ormo\u017e Municipality"},{"id":4199,"name":"Osilnica Municipality","country_id":201,"country_code":"SI","country_name":"Slovenia","state_code":"088","type":null,"latitude":"45.54184670","longitude":"14.71563030","name_ar":"Osilnica Municipality"},{"id":4172,"name":"Pesnica Municipality","country_id":201,"country_code":"SI","country_name":"Slovenia","state_code":"089","type":null,"latitude":"46.60887550","longitude":"15.67570510","name_ar":"Pesnica Municipality"},{"id":4201,"name":"Piran Municipality","country_id":201,"country_code":"SI","country_name":"Slovenia","state_code":"090","type":null,"latitude":"45.52888560","longitude":"13.56807350","name_ar":"Piran Municipality"},{"id":4184,"name":"Pivka Municipality","country_id":201,"country_code":"SI","country_name":"Slovenia","state_code":"091","type":null,"latitude":"45.67892960","longitude":"14.25426890","name_ar":"Pivka Municipality"},{"id":4146,"name":"Pod\u010detrtek Municipality","country_id":201,"country_code":"SI","country_name":"Slovenia","state_code":"092","type":null,"latitude":"46.17395420","longitude":"15.60138160","name_ar":"Pod\u010detrtek Municipality"},{"id":4161,"name":"Podlehnik Municipality","country_id":201,"country_code":"SI","country_name":"Slovenia","state_code":"172","type":null,"latitude":"46.33107820","longitude":"15.87858360","name_ar":"Podlehnik Municipality"},{"id":4234,"name":"Podvelka Municipality","country_id":201,"country_code":"SI","country_name":"Slovenia","state_code":"093","type":null,"latitude":"46.62219520","longitude":"15.38899220","name_ar":"Podvelka Municipality"},{"id":4239,"name":"Polj\u010dane Municipality","country_id":201,"country_code":"SI","country_name":"Slovenia","state_code":"200","type":null,"latitude":"46.31398530","longitude":"15.57847910","name_ar":"Polj\u010dane Municipality"},{"id":4272,"name":"Polzela Municipality","country_id":201,"country_code":"SI","country_name":"Slovenia","state_code":"173","type":null,"latitude":"46.28089700","longitude":"15.07373210","name_ar":"Polzela Municipality"},{"id":4330,"name":"Postojna Municipality","country_id":201,"country_code":"SI","country_name":"Slovenia","state_code":"094","type":null,"latitude":"45.77493900","longitude":"14.21342630","name_ar":"Postojna Municipality"},{"id":4188,"name":"Prebold Municipality","country_id":201,"country_code":"SI","country_name":"Slovenia","state_code":"174","type":null,"latitude":"46.23591360","longitude":"15.09369120","name_ar":"Prebold Municipality"},{"id":4303,"name":"Preddvor Municipality","country_id":201,"country_code":"SI","country_name":"Slovenia","state_code":"095","type":null,"latitude":"46.30171390","longitude":"14.42181650","name_ar":"Preddvor Municipality"},{"id":4274,"name":"Prevalje Municipality","country_id":201,"country_code":"SI","country_name":"Slovenia","state_code":"175","type":null,"latitude":"46.56211460","longitude":"14.88478610","name_ar":"Prevalje Municipality"},{"id":4228,"name":"Ptuj City Municipality","country_id":201,"country_code":"SI","country_name":"Slovenia","state_code":"096","type":null,"latitude":"46.41995350","longitude":"15.86968840","name_ar":"Ptuj City Municipality"},{"id":4288,"name":"Puconci Municipality","country_id":201,"country_code":"SI","country_name":"Slovenia","state_code":"097","type":null,"latitude":"46.72004180","longitude":"16.09977920","name_ar":"Puconci Municipality"},{"id":4204,"name":"Ra\u010de\u2013Fram Municipality","country_id":201,"country_code":"SI","country_name":"Slovenia","state_code":"098","type":null,"latitude":"46.45420830","longitude":"15.63294670","name_ar":"Ra\u010de\u2013Fram Municipality"},{"id":4195,"name":"Rade\u010de Municipality","country_id":201,"country_code":"SI","country_name":"Slovenia","state_code":"099","type":null,"latitude":"46.06669540","longitude":"15.18204380","name_ar":"Rade\u010de Municipality"},{"id":4292,"name":"Radenci Municipality","country_id":201,"country_code":"SI","country_name":"Slovenia","state_code":"100","type":null,"latitude":"46.62311210","longitude":"16.05069030","name_ar":"Radenci Municipality"},{"id":4275,"name":"Radlje ob Dravi Municipality","country_id":201,"country_code":"SI","country_name":"Slovenia","state_code":"101","type":null,"latitude":"46.61357320","longitude":"15.23544380","name_ar":"Radlje ob Dravi Municipality"},{"id":4231,"name":"Radovljica Municipality","country_id":201,"country_code":"SI","country_name":"Slovenia","state_code":"102","type":null,"latitude":"46.33558270","longitude":"14.20945340","name_ar":"Radovljica Municipality"},{"id":4155,"name":"Ravne na Koro\u0161kem Municipality","country_id":201,"country_code":"SI","country_name":"Slovenia","state_code":"103","type":null,"latitude":"46.55211940","longitude":"14.95990840","name_ar":"Ravne na Koro\u0161kem Municipality"},{"id":4206,"name":"Razkri\u017eje Municipality","country_id":201,"country_code":"SI","country_name":"Slovenia","state_code":"176","type":null,"latitude":"46.52263390","longitude":"16.26686380","name_ar":"Razkri\u017eje Municipality"},{"id":4160,"name":"Re\u010dica ob Savinji Municipality","country_id":201,"country_code":"SI","country_name":"Slovenia","state_code":"209","type":null,"latitude":"46.32337900","longitude":"14.92236700","name_ar":"Re\u010dica ob Savinji Municipality"},{"id":4253,"name":"Ren\u010de\u2013Vogrsko Municipality","country_id":201,"country_code":"SI","country_name":"Slovenia","state_code":"201","type":null,"latitude":"45.89546170","longitude":"13.67856730","name_ar":"Ren\u010de\u2013Vogrsko Municipality"},{"id":4235,"name":"Ribnica Municipality","country_id":201,"country_code":"SI","country_name":"Slovenia","state_code":"104","type":null,"latitude":"45.74003030","longitude":"14.72657820","name_ar":"Ribnica Municipality"},{"id":4207,"name":"Ribnica na Pohorju Municipality","country_id":201,"country_code":"SI","country_name":"Slovenia","state_code":"177","type":null,"latitude":"46.53561450","longitude":"15.26745380","name_ar":"Ribnica na Pohorju Municipality"},{"id":4233,"name":"Roga\u0161ka Slatina Municipality","country_id":201,"country_code":"SI","country_name":"Slovenia","state_code":"106","type":null,"latitude":"46.24539730","longitude":"15.62650140","name_ar":"Roga\u0161ka Slatina Municipality"},{"id":4264,"name":"Roga\u0161ovci Municipality","country_id":201,"country_code":"SI","country_name":"Slovenia","state_code":"105","type":null,"latitude":"46.80557850","longitude":"16.03452370","name_ar":"Roga\u0161ovci Municipality"},{"id":4209,"name":"Rogatec Municipality","country_id":201,"country_code":"SI","country_name":"Slovenia","state_code":"107","type":null,"latitude":"46.22866260","longitude":"15.69913380","name_ar":"Rogatec Municipality"},{"id":4280,"name":"Ru\u0161e Municipality","country_id":201,"country_code":"SI","country_name":"Slovenia","state_code":"108","type":null,"latitude":"46.52062650","longitude":"15.48178690","name_ar":"Ru\u0161e Municipality"},{"id":4222,"name":"\u0160alovci Municipality","country_id":201,"country_code":"SI","country_name":"Slovenia","state_code":"033","type":null,"latitude":"46.85335680","longitude":"16.25917910","name_ar":"\u0160alovci Municipality"},{"id":4230,"name":"Selnica ob Dravi Municipality","country_id":201,"country_code":"SI","country_name":"Slovenia","state_code":"178","type":null,"latitude":"46.55139180","longitude":"15.49294100","name_ar":"Selnica ob Dravi Municipality"},{"id":4346,"name":"Semi\u010d Municipality","country_id":201,"country_code":"SI","country_name":"Slovenia","state_code":"109","type":null,"latitude":"45.65205340","longitude":"15.18207010","name_ar":"Semi\u010d Municipality"},{"id":4317,"name":"\u0160empeter\u2013Vrtojba Municipality","country_id":201,"country_code":"SI","country_name":"Slovenia","state_code":"183","type":null,"latitude":"45.92900950","longitude":"13.64155940","name_ar":"\u0160empeter\u2013Vrtojba Municipality"},{"id":4299,"name":"\u0160en\u010dur Municipality","country_id":201,"country_code":"SI","country_name":"Slovenia","state_code":"117","type":null,"latitude":"46.24336990","longitude":"14.41922230","name_ar":"\u0160en\u010dur Municipality"},{"id":4324,"name":"\u0160entilj Municipality","country_id":201,"country_code":"SI","country_name":"Slovenia","state_code":"118","type":null,"latitude":"46.68628390","longitude":"15.71035670","name_ar":"\u0160entilj Municipality"},{"id":4241,"name":"\u0160entjernej Municipality","country_id":201,"country_code":"SI","country_name":"Slovenia","state_code":"119","type":null,"latitude":"45.84341300","longitude":"15.33783120","name_ar":"\u0160entjernej Municipality"},{"id":4171,"name":"\u0160entjur Municipality","country_id":201,"country_code":"SI","country_name":"Slovenia","state_code":"120","type":null,"latitude":"46.26543390","longitude":"15.40800000","name_ar":"\u0160entjur Municipality"},{"id":4311,"name":"\u0160entrupert Municipality","country_id":201,"country_code":"SI","country_name":"Slovenia","state_code":"211","type":null,"latitude":"45.98731420","longitude":"15.08297830","name_ar":"\u0160entrupert Municipality"},{"id":4268,"name":"Sevnica Municipality","country_id":201,"country_code":"SI","country_name":"Slovenia","state_code":"110","type":null,"latitude":"46.00703170","longitude":"15.30456790","name_ar":"Sevnica Municipality"},{"id":4149,"name":"Se\u017eana Municipality","country_id":201,"country_code":"SI","country_name":"Slovenia","state_code":"111","type":null,"latitude":"45.72751090","longitude":"13.86619310","name_ar":"Se\u017eana Municipality"},{"id":4170,"name":"\u0160kocjan Municipality","country_id":201,"country_code":"SI","country_name":"Slovenia","state_code":"121","type":null,"latitude":"45.91754540","longitude":"15.31017360","name_ar":"\u0160kocjan Municipality"},{"id":4316,"name":"\u0160kofja Loka Municipality","country_id":201,"country_code":"SI","country_name":"Slovenia","state_code":"122","type":null,"latitude":"46.14098440","longitude":"14.28118730","name_ar":"\u0160kofja Loka Municipality"},{"id":4169,"name":"Slovenj Gradec City Municipality","country_id":201,"country_code":"SI","country_name":"Slovenia","state_code":"112","type":null,"latitude":"46.48777180","longitude":"15.07294780","name_ar":"Slovenj Gradec City Municipality"},{"id":4332,"name":"Slovenska Bistrica Municipality","country_id":201,"country_code":"SI","country_name":"Slovenia","state_code":"113","type":null,"latitude":"46.39198130","longitude":"15.57278690","name_ar":"Slovenska Bistrica Municipality"},{"id":4198,"name":"Slovenske Konjice Municipality","country_id":201,"country_code":"SI","country_name":"Slovenia","state_code":"114","type":null,"latitude":"46.33691910","longitude":"15.42147080","name_ar":"Slovenske Konjice Municipality"},{"id":4285,"name":"\u0160marje pri Jel\u0161ah Municipality","country_id":201,"country_code":"SI","country_name":"Slovenia","state_code":"124","type":null,"latitude":"46.22870250","longitude":"15.51903530","name_ar":"\u0160marje pri Jel\u0161ah Municipality"},{"id":4289,"name":"\u0160marje\u0161ke Toplice Municipality","country_id":201,"country_code":"SI","country_name":"Slovenia","state_code":"206","type":null,"latitude":"45.86803770","longitude":"15.23474220","name_ar":"\u0160marje\u0161ke Toplice Municipality"},{"id":4296,"name":"\u0160martno ob Paki Municipality","country_id":201,"country_code":"SI","country_name":"Slovenia","state_code":"125","type":null,"latitude":"46.32903720","longitude":"15.03339370","name_ar":"\u0160martno ob Paki Municipality"},{"id":4279,"name":"\u0160martno pri Litiji Municipality","country_id":201,"country_code":"SI","country_name":"Slovenia","state_code":"194","type":null,"latitude":"46.04549710","longitude":"14.84101330","name_ar":"\u0160martno pri Litiji Municipality"},{"id":4277,"name":"Sodra\u017eica Municipality","country_id":201,"country_code":"SI","country_name":"Slovenia","state_code":"179","type":null,"latitude":"45.76165650","longitude":"14.63528530","name_ar":"Sodra\u017eica Municipality"},{"id":4261,"name":"Sol\u010dava Municipality","country_id":201,"country_code":"SI","country_name":"Slovenia","state_code":"180","type":null,"latitude":"46.40235260","longitude":"14.68023040","name_ar":"Sol\u010dava Municipality"},{"id":4248,"name":"\u0160o\u0161tanj Municipality","country_id":201,"country_code":"SI","country_name":"Slovenia","state_code":"126","type":null,"latitude":"46.37828360","longitude":"15.04613780","name_ar":"\u0160o\u0161tanj Municipality"},{"id":4263,"name":"Sredi\u0161\u010de ob Dravi","country_id":201,"country_code":"SI","country_name":"Slovenia","state_code":"202","type":null,"latitude":"46.39592820","longitude":"16.27049150","name_ar":"Sredi\u0161\u010de ob Dravi"},{"id":4259,"name":"Star\u0161e Municipality","country_id":201,"country_code":"SI","country_name":"Slovenia","state_code":"115","type":null,"latitude":"46.46743310","longitude":"15.76405460","name_ar":"Star\u0161e Municipality"},{"id":4185,"name":"\u0160tore Municipality","country_id":201,"country_code":"SI","country_name":"Slovenia","state_code":"127","type":null,"latitude":"46.22225140","longitude":"15.31261160","name_ar":"\u0160tore Municipality"},{"id":4333,"name":"Stra\u017ea Municipality","country_id":201,"country_code":"SI","country_name":"Slovenia","state_code":"203","type":null,"latitude":"45.77684280","longitude":"15.09486940","name_ar":"Stra\u017ea Municipality"},{"id":4164,"name":"Sveta Ana Municipality","country_id":201,"country_code":"SI","country_name":"Slovenia","state_code":"181","type":null,"latitude":"46.65000000","longitude":"15.84527800","name_ar":"Sveta Ana Municipality"},{"id":4260,"name":"Sveta Trojica v Slovenskih Goricah Municipality","country_id":201,"country_code":"SI","country_name":"Slovenia","state_code":"204","type":null,"latitude":"46.56808090","longitude":"15.88230640","name_ar":"Sveta Trojica v Slovenskih Goricah Municipality"},{"id":4229,"name":"Sveti Andra\u017e v Slovenskih Goricah Municipality","country_id":201,"country_code":"SI","country_name":"Slovenia","state_code":"182","type":null,"latitude":"46.51897470","longitude":"15.94982620","name_ar":"Sveti Andra\u017e v Slovenskih Goricah Municipality"},{"id":4255,"name":"Sveti Jurij ob \u0160\u010davnici Municipality","country_id":201,"country_code":"SI","country_name":"Slovenia","state_code":"116","type":null,"latitude":"46.56874520","longitude":"16.02225280","name_ar":"Sveti Jurij ob \u0160\u010davnici Municipality"},{"id":4328,"name":"Sveti Jurij v Slovenskih Goricah Municipality","country_id":201,"country_code":"SI","country_name":"Slovenia","state_code":"210","type":null,"latitude":"46.61707910","longitude":"15.78046770","name_ar":"Sveti Jurij v Slovenskih Goricah Municipality"},{"id":4273,"name":"Sveti Toma\u017e Municipality","country_id":201,"country_code":"SI","country_name":"Slovenia","state_code":"205","type":null,"latitude":"46.48352830","longitude":"16.07944200","name_ar":"Sveti Toma\u017e Municipality"},{"id":4194,"name":"Tabor Municipality","country_id":201,"country_code":"SI","country_name":"Slovenia","state_code":"184","type":null,"latitude":"46.21079210","longitude":"15.01742490","name_ar":"Tabor Municipality"},{"id":4312,"name":"Ti\u0161ina Municipality","country_id":201,"country_code":"SI","country_name":"Slovenia","state_code":"010","type":null,"latitude":"46.65418840","longitude":"16.07547810","name_ar":"Ti\u0161ina Municipality"},{"id":4247,"name":"Tolmin Municipality","country_id":201,"country_code":"SI","country_name":"Slovenia","state_code":"128","type":null,"latitude":"46.18571880","longitude":"13.73198380","name_ar":"Tolmin Municipality"},{"id":4246,"name":"Trbovlje Municipality","country_id":201,"country_code":"SI","country_name":"Slovenia","state_code":"129","type":null,"latitude":"46.15035630","longitude":"15.04531370","name_ar":"Trbovlje Municipality"},{"id":4214,"name":"Trebnje Municipality","country_id":201,"country_code":"SI","country_name":"Slovenia","state_code":"130","type":null,"latitude":"45.90801630","longitude":"15.01319050","name_ar":"Trebnje Municipality"},{"id":4153,"name":"Trnovska Vas Municipality","country_id":201,"country_code":"SI","country_name":"Slovenia","state_code":"185","type":null,"latitude":"46.52940350","longitude":"15.88531180","name_ar":"Trnovska Vas Municipality"},{"id":4250,"name":"Tr\u017ei\u010d Municipality","country_id":201,"country_code":"SI","country_name":"Slovenia","state_code":"131","type":null,"latitude":"46.35935140","longitude":"14.30066230","name_ar":"Tr\u017ei\u010d Municipality"},{"id":4334,"name":"Trzin Municipality","country_id":201,"country_code":"SI","country_name":"Slovenia","state_code":"186","type":null,"latitude":"46.12982410","longitude":"14.55776370","name_ar":"Trzin Municipality"},{"id":4251,"name":"Turni\u0161\u010de Municipality","country_id":201,"country_code":"SI","country_name":"Slovenia","state_code":"132","type":null,"latitude":"46.61375040","longitude":"16.32021000","name_ar":"Turni\u0161\u010de Municipality"},{"id":4267,"name":"Velika Polana Municipality","country_id":201,"country_code":"SI","country_name":"Slovenia","state_code":"187","type":null,"latitude":"46.57317150","longitude":"16.34441260","name_ar":"Velika Polana Municipality"},{"id":4144,"name":"Velike La\u0161\u010de Municipality","country_id":201,"country_code":"SI","country_name":"Slovenia","state_code":"134","type":null,"latitude":"45.83365910","longitude":"14.63623630","name_ar":"Velike La\u0161\u010de Municipality"},{"id":4257,"name":"Ver\u017eej Municipality","country_id":201,"country_code":"SI","country_name":"Slovenia","state_code":"188","type":null,"latitude":"46.58411350","longitude":"16.16208000","name_ar":"Ver\u017eej Municipality"},{"id":4300,"name":"Videm Municipality","country_id":201,"country_code":"SI","country_name":"Slovenia","state_code":"135","type":null,"latitude":"46.36383300","longitude":"15.87812120","name_ar":"Videm Municipality"},{"id":4196,"name":"Vipava Municipality","country_id":201,"country_code":"SI","country_name":"Slovenia","state_code":"136","type":null,"latitude":"45.84126740","longitude":"13.96096130","name_ar":"Vipava Municipality"},{"id":4148,"name":"Vitanje Municipality","country_id":201,"country_code":"SI","country_name":"Slovenia","state_code":"137","type":null,"latitude":"46.38153230","longitude":"15.29506870","name_ar":"Vitanje Municipality"},{"id":4154,"name":"Vodice Municipality","country_id":201,"country_code":"SI","country_name":"Slovenia","state_code":"138","type":null,"latitude":"46.18966430","longitude":"14.49385390","name_ar":"Vodice Municipality"},{"id":4245,"name":"Vojnik Municipality","country_id":201,"country_code":"SI","country_name":"Slovenia","state_code":"139","type":null,"latitude":"46.29205810","longitude":"15.30205800","name_ar":"Vojnik Municipality"},{"id":4163,"name":"Vransko Municipality","country_id":201,"country_code":"SI","country_name":"Slovenia","state_code":"189","type":null,"latitude":"46.23900600","longitude":"14.95272490","name_ar":"Vransko Municipality"},{"id":4262,"name":"Vrhnika Municipality","country_id":201,"country_code":"SI","country_name":"Slovenia","state_code":"140","type":null,"latitude":"45.95027190","longitude":"14.32764220","name_ar":"Vrhnika Municipality"},{"id":4226,"name":"Vuzenica Municipality","country_id":201,"country_code":"SI","country_name":"Slovenia","state_code":"141","type":null,"latitude":"46.59808360","longitude":"15.16572370","name_ar":"Vuzenica Municipality"},{"id":4269,"name":"Zagorje ob Savi Municipality","country_id":201,"country_code":"SI","country_name":"Slovenia","state_code":"142","type":null,"latitude":"46.13452020","longitude":"14.99643840","name_ar":"Zagorje ob Savi Municipality"},{"id":4258,"name":"\u017dalec Municipality","country_id":201,"country_code":"SI","country_name":"Slovenia","state_code":"190","type":null,"latitude":"46.25197120","longitude":"15.16500720","name_ar":"\u017dalec Municipality"},{"id":4182,"name":"Zavr\u010d Municipality","country_id":201,"country_code":"SI","country_name":"Slovenia","state_code":"143","type":null,"latitude":"46.35713000","longitude":"16.04777470","name_ar":"Zavr\u010d Municipality"},{"id":4256,"name":"\u017delezniki Municipality","country_id":201,"country_code":"SI","country_name":"Slovenia","state_code":"146","type":null,"latitude":"46.22563770","longitude":"14.16936170","name_ar":"\u017delezniki Municipality"},{"id":4249,"name":"\u017detale Municipality","country_id":201,"country_code":"SI","country_name":"Slovenia","state_code":"191","type":null,"latitude":"46.27428330","longitude":"15.79133590","name_ar":"\u017detale Municipality"},{"id":4192,"name":"\u017diri Municipality","country_id":201,"country_code":"SI","country_name":"Slovenia","state_code":"147","type":null,"latitude":"46.04724990","longitude":"14.10984510","name_ar":"\u017diri Municipality"},{"id":4276,"name":"\u017dirovnica Municipality","country_id":201,"country_code":"SI","country_name":"Slovenia","state_code":"192","type":null,"latitude":"46.39544030","longitude":"14.15396320","name_ar":"\u017dirovnica Municipality"},{"id":4342,"name":"Zre\u010de Municipality","country_id":201,"country_code":"SI","country_name":"Slovenia","state_code":"144","type":null,"latitude":"46.41777860","longitude":"15.37094310","name_ar":"Zre\u010de Municipality"},{"id":4307,"name":"\u017du\u017eemberk Municipality","country_id":201,"country_code":"SI","country_name":"Slovenia","state_code":"193","type":null,"latitude":"45.82003500","longitude":"14.95359190","name_ar":"\u017du\u017eemberk Municipality"}]