[{"id":4520,"name":"Aileu municipality","country_id":63,"country_code":"TL","country_name":"East Timor","state_code":"AL","type":null,"latitude":"-8.70439940","longitude":"125.60954740","name_ar":"Aileu municipality"},{"id":4518,"name":"Ainaro Municipality","country_id":63,"country_code":"TL","country_name":"East Timor","state_code":"AN","type":null,"latitude":"-9.01131710","longitude":"125.52200120","name_ar":"Ainaro Municipality"},{"id":4521,"name":"Baucau Municipality","country_id":63,"country_code":"TL","country_name":"East Timor","state_code":"BA","type":null,"latitude":"-8.47143080","longitude":"126.45759910","name_ar":"Baucau Municipality"},{"id":4525,"name":"Bobonaro Municipality","country_id":63,"country_code":"TL","country_name":"East Timor","state_code":"BO","type":null,"latitude":"-8.96554060","longitude":"125.25879640","name_ar":"Bobonaro Municipality"},{"id":4522,"name":"Cova Lima Municipality","country_id":63,"country_code":"TL","country_name":"East Timor","state_code":"CO","type":null,"latitude":"-9.26503750","longitude":"125.25879640","name_ar":"Cova Lima Municipality"},{"id":4524,"name":"Dili municipality","country_id":63,"country_code":"TL","country_name":"East Timor","state_code":"DI","type":null,"latitude":"-8.24496130","longitude":"125.58766970","name_ar":"Dili municipality"},{"id":4516,"name":"Ermera District","country_id":63,"country_code":"TL","country_name":"East Timor","state_code":"ER","type":null,"latitude":"-8.75248020","longitude":"125.39872940","name_ar":"Ermera District"},{"id":4523,"name":"Laut\u00e9m Municipality","country_id":63,"country_code":"TL","country_name":"East Timor","state_code":"LA","type":null,"latitude":"-8.36423070","longitude":"126.90438450","name_ar":"Laut\u00e9m Municipality"},{"id":4515,"name":"Liqui\u00e7\u00e1 Municipality","country_id":63,"country_code":"TL","country_name":"East Timor","state_code":"LI","type":null,"latitude":"-8.66740950","longitude":"125.25879640","name_ar":"Liqui\u00e7\u00e1 Municipality"},{"id":4517,"name":"Manatuto District","country_id":63,"country_code":"TL","country_name":"East Timor","state_code":"MT","type":null,"latitude":"-8.51556080","longitude":"126.01592550","name_ar":"Manatuto District"},{"id":4519,"name":"Manufahi Municipality","country_id":63,"country_code":"TL","country_name":"East Timor","state_code":"MF","type":null,"latitude":"-9.01454950","longitude":"125.82799590","name_ar":"Manufahi Municipality"},{"id":4514,"name":"Viqueque Municipality","country_id":63,"country_code":"TL","country_name":"East Timor","state_code":"VI","type":null,"latitude":"-8.85979180","longitude":"126.36335160","name_ar":"Viqueque Municipality"}]