[{"id":2550,"name":"Ariana","country_id":224,"country_code":"TN","country_name":"Tunisia","state_code":"12","type":"governorate","latitude":"36.99227510","longitude":"10.12551640","name_ar":"Ariana"},{"id":2572,"name":"B\u00e9ja","country_id":224,"country_code":"TN","country_name":"Tunisia","state_code":"31","type":"governorate","latitude":"35.17227160","longitude":"8.83076260","name_ar":"B\u00e9ja"},{"id":2566,"name":"Ben Arous","country_id":224,"country_code":"TN","country_name":"Tunisia","state_code":"13","type":"governorate","latitude":"36.64356060","longitude":"10.21515780","name_ar":"Ben Arous"},{"id":2551,"name":"Bizerte","country_id":224,"country_code":"TN","country_name":"Tunisia","state_code":"23","type":"governorate","latitude":"37.16093970","longitude":"9.63413500","name_ar":"Bizerte"},{"id":2558,"name":"Gab\u00e8s","country_id":224,"country_code":"TN","country_name":"Tunisia","state_code":"81","type":"governorate","latitude":"33.94596480","longitude":"9.72326730","name_ar":"Gab\u00e8s"},{"id":2556,"name":"Gafsa","country_id":224,"country_code":"TN","country_name":"Tunisia","state_code":"71","type":"governorate","latitude":"34.37885050","longitude":"8.66005860","name_ar":"Gafsa"},{"id":2552,"name":"Jendouba","country_id":224,"country_code":"TN","country_name":"Tunisia","state_code":"32","type":"governorate","latitude":"36.71818620","longitude":"8.74811670","name_ar":"Jendouba"},{"id":2564,"name":"Kairouan","country_id":224,"country_code":"TN","country_name":"Tunisia","state_code":"41","type":"governorate","latitude":"35.67116630","longitude":"10.10054690","name_ar":"Kairouan"},{"id":2570,"name":"Kasserine","country_id":224,"country_code":"TN","country_name":"Tunisia","state_code":"42","type":"governorate","latitude":"35.08091480","longitude":"8.66005860","name_ar":"Kasserine"},{"id":2562,"name":"Kebili","country_id":224,"country_code":"TN","country_name":"Tunisia","state_code":"73","type":"governorate","latitude":"33.70715510","longitude":"8.97146230","name_ar":"Kebili"},{"id":2561,"name":"Kef","country_id":224,"country_code":"TN","country_name":"Tunisia","state_code":"33","type":"governorate","latitude":"36.12305120","longitude":"8.66005860","name_ar":"Kef"},{"id":2568,"name":"Mahdia","country_id":224,"country_code":"TN","country_name":"Tunisia","state_code":"53","type":"governorate","latitude":"35.33525580","longitude":"10.89030990","name_ar":"Mahdia"},{"id":2555,"name":"Manouba","country_id":224,"country_code":"TN","country_name":"Tunisia","state_code":"14","type":"governorate","latitude":"36.84465040","longitude":"9.85714160","name_ar":"Manouba"},{"id":2560,"name":"Medenine","country_id":224,"country_code":"TN","country_name":"Tunisia","state_code":"82","type":"governorate","latitude":"33.22805650","longitude":"10.89030990","name_ar":"Medenine"},{"id":2553,"name":"Monastir","country_id":224,"country_code":"TN","country_name":"Tunisia","state_code":"52","type":"governorate","latitude":"35.76425150","longitude":"10.81128850","name_ar":"Monastir"},{"id":5116,"name":"Nabeul","country_id":224,"country_code":"TN","country_name":"Tunisia","state_code":"21","type":"governorate","latitude":"36.45245910","longitude":"10.68032220","name_ar":"Nabeul"},{"id":2557,"name":"Sfax","country_id":224,"country_code":"TN","country_name":"Tunisia","state_code":"61","type":"governorate","latitude":"34.86065810","longitude":"10.34978950","name_ar":"Sfax"},{"id":2567,"name":"Sidi Bouzid","country_id":224,"country_code":"TN","country_name":"Tunisia","state_code":"43","type":"governorate","latitude":"35.03543860","longitude":"9.48393920","name_ar":"Sidi Bouzid"},{"id":2563,"name":"Siliana","country_id":224,"country_code":"TN","country_name":"Tunisia","state_code":"34","type":"governorate","latitude":"36.08872080","longitude":"9.36453350","name_ar":"Siliana"},{"id":2571,"name":"Sousse","country_id":224,"country_code":"TN","country_name":"Tunisia","state_code":"51","type":"governorate","latitude":"35.90222670","longitude":"10.34978950","name_ar":"Sousse"},{"id":2559,"name":"Tataouine","country_id":224,"country_code":"TN","country_name":"Tunisia","state_code":"83","type":"governorate","latitude":"32.13441220","longitude":"10.08072980","name_ar":"Tataouine"},{"id":2569,"name":"Tozeur","country_id":224,"country_code":"TN","country_name":"Tunisia","state_code":"72","type":"governorate","latitude":"33.97894910","longitude":"8.04651850","name_ar":"Tozeur"},{"id":2554,"name":"Tunis","country_id":224,"country_code":"TN","country_name":"Tunisia","state_code":"11","type":"governorate","latitude":"36.83749460","longitude":"10.19273890","name_ar":"Tunis"},{"id":2565,"name":"Zaghouan","country_id":224,"country_code":"TN","country_name":"Tunisia","state_code":"22","type":"governorate","latitude":"36.40911880","longitude":"10.14231720","name_ar":"Zaghouan"}]