[{"id":3404,"name":"Changhua","country_id":216,"country_code":"TW","country_name":"Taiwan","state_code":"CHA","type":"county","latitude":"24.05179630","longitude":"120.51613520","name_ar":"Changhua"},{"id":3408,"name":"Chiayi","country_id":216,"country_code":"TW","country_name":"Taiwan","state_code":"CYI","type":"city","latitude":"23.45184280","longitude":"120.25546150","name_ar":"Chiayi"},{"id":3418,"name":"Chiayi","country_id":216,"country_code":"TW","country_name":"Taiwan","state_code":"CYQ","type":"county","latitude":"23.48007510","longitude":"120.44911130","name_ar":"Chiayi"},{"id":3423,"name":"Hsinchu","country_id":216,"country_code":"TW","country_name":"Taiwan","state_code":"HSQ","type":"county","latitude":"24.83872260","longitude":"121.01772460","name_ar":"Hsinchu"},{"id":3417,"name":"Hsinchu","country_id":216,"country_code":"TW","country_name":"Taiwan","state_code":"HSZ","type":"city","latitude":"24.81382870","longitude":"120.96747980","name_ar":"Hsinchu"},{"id":3411,"name":"Hualien","country_id":216,"country_code":"TW","country_name":"Taiwan","state_code":"HUA","type":"county","latitude":"23.98715890","longitude":"121.60157140","name_ar":"Hualien"},{"id":3412,"name":"Kaohsiung","country_id":216,"country_code":"TW","country_name":"Taiwan","state_code":"KHH","type":"special municipality","latitude":"22.62727840","longitude":"120.30143530","name_ar":"Kaohsiung"},{"id":4965,"name":"Keelung","country_id":216,"country_code":"TW","country_name":"Taiwan","state_code":"KEE","type":"city","latitude":"25.12418620","longitude":"121.64758340","name_ar":"Keelung"},{"id":3415,"name":"Kinmen","country_id":216,"country_code":"TW","country_name":"Taiwan","state_code":"KIN","type":"county","latitude":"24.34877920","longitude":"118.32856440","name_ar":"Kinmen"},{"id":3420,"name":"Lienchiang","country_id":216,"country_code":"TW","country_name":"Taiwan","state_code":"LIE","type":"county","latitude":"26.15055560","longitude":"119.92888890","name_ar":"Lienchiang"},{"id":3413,"name":"Miaoli","country_id":216,"country_code":"TW","country_name":"Taiwan","state_code":"MIA","type":"county","latitude":"24.56015900","longitude":"120.82142650","name_ar":"Miaoli"},{"id":3407,"name":"Nantou","country_id":216,"country_code":"TW","country_name":"Taiwan","state_code":"NAN","type":"county","latitude":"23.96099810","longitude":"120.97186380","name_ar":"Nantou"},{"id":4966,"name":"New Taipei","country_id":216,"country_code":"TW","country_name":"Taiwan","state_code":"NWT","type":"special municipality","latitude":"24.98752780","longitude":"121.36459470","name_ar":"New Taipei"},{"id":3403,"name":"Penghu","country_id":216,"country_code":"TW","country_name":"Taiwan","state_code":"PEN","type":"county","latitude":"23.57118990","longitude":"119.57931570","name_ar":"Penghu"},{"id":3405,"name":"Pingtung","country_id":216,"country_code":"TW","country_name":"Taiwan","state_code":"PIF","type":"county","latitude":"22.55197590","longitude":"120.54875970","name_ar":"Pingtung"},{"id":3406,"name":"Taichung","country_id":216,"country_code":"TW","country_name":"Taiwan","state_code":"TXG","type":"special municipality","latitude":"24.14773580","longitude":"120.67364820","name_ar":"Taichung"},{"id":3421,"name":"Tainan","country_id":216,"country_code":"TW","country_name":"Taiwan","state_code":"TNN","type":"special municipality","latitude":"22.99972810","longitude":"120.22702770","name_ar":"Tainan"},{"id":3422,"name":"Taipei","country_id":216,"country_code":"TW","country_name":"Taiwan","state_code":"TPE","type":"special municipality","latitude":"25.03296940","longitude":"121.56541770","name_ar":"Taipei"},{"id":3410,"name":"Taitung","country_id":216,"country_code":"TW","country_name":"Taiwan","state_code":"TTT","type":"county","latitude":"22.79724470","longitude":"121.07137020","name_ar":"Taitung"},{"id":3419,"name":"Taoyuan","country_id":216,"country_code":"TW","country_name":"Taiwan","state_code":"TAO","type":"special municipality","latitude":"24.99362810","longitude":"121.30097980","name_ar":"Taoyuan"},{"id":3402,"name":"Yilan","country_id":216,"country_code":"TW","country_name":"Taiwan","state_code":"ILA","type":"county","latitude":"24.70210730","longitude":"121.73775020","name_ar":"Yilan"},{"id":3416,"name":"Yunlin","country_id":216,"country_code":"TW","country_name":"Taiwan","state_code":"YUN","type":"county","latitude":"23.70920330","longitude":"120.43133730","name_ar":"Yunlin"}]