[{"id":1956,"name":"Bulawayo Province","country_id":247,"country_code":"ZW","country_name":"Zimbabwe","state_code":"BU","type":null,"latitude":"-20.14895050","longitude":"28.53310380","name_ar":"Bulawayo Province"},{"id":1958,"name":"Harare Province","country_id":247,"country_code":"ZW","country_name":"Zimbabwe","state_code":"HA","type":null,"latitude":"-17.82162880","longitude":"31.04922590","name_ar":"Harare Province"},{"id":1959,"name":"Manicaland","country_id":247,"country_code":"ZW","country_name":"Zimbabwe","state_code":"MA","type":null,"latitude":"-18.92163860","longitude":"32.17460500","name_ar":"Manicaland"},{"id":1955,"name":"Mashonaland Central Province","country_id":247,"country_code":"ZW","country_name":"Zimbabwe","state_code":"MC","type":null,"latitude":"-16.76442950","longitude":"31.07937050","name_ar":"Mashonaland Central Province"},{"id":1951,"name":"Mashonaland East Province","country_id":247,"country_code":"ZW","country_name":"Zimbabwe","state_code":"ME","type":null,"latitude":"-18.58716420","longitude":"31.26263660","name_ar":"Mashonaland East Province"},{"id":1953,"name":"Mashonaland West Province","country_id":247,"country_code":"ZW","country_name":"Zimbabwe","state_code":"MW","type":null,"latitude":"-17.48510290","longitude":"29.78892480","name_ar":"Mashonaland West Province"},{"id":1960,"name":"Masvingo Province","country_id":247,"country_code":"ZW","country_name":"Zimbabwe","state_code":"MV","type":null,"latitude":"-20.62415090","longitude":"31.26263660","name_ar":"Masvingo Province"},{"id":1954,"name":"Matabeleland North Province","country_id":247,"country_code":"ZW","country_name":"Zimbabwe","state_code":"MN","type":null,"latitude":"-18.53315660","longitude":"27.54958460","name_ar":"Matabeleland North Province"},{"id":1952,"name":"Matabeleland South Province","country_id":247,"country_code":"ZW","country_name":"Zimbabwe","state_code":"MS","type":null,"latitude":"-21.05233700","longitude":"29.04599270","name_ar":"Matabeleland South Province"},{"id":1957,"name":"Midlands Province","country_id":247,"country_code":"ZW","country_name":"Zimbabwe","state_code":"MI","type":null,"latitude":"-19.05520090","longitude":"29.60354950","name_ar":"Midlands Province"}]